FacilityName,CSV_Latitude,CSV_Longitude,Latitude,Longitude,Business_Status,Is_Accurate
A.M.E Zion Clinic,7.40801,-1.96317,7.4078288,-1.9623963,OPERATIONAL,true
Abenkyiman Clinic,6.46312,-1.58592,6.4703861,-1.6388538,OPERATIONAL,false
Aboabo Health Centre,6.22393,-1.34982,6.2239,-1.3498,OPERATIONAL,true
Aboabogya Health Centre,6.84177,-1.61098,6.8418668,-1.6109961,OPERATIONAL,true
Aboaso Health Centre,6.84177,-1.61098,6.808160399999999,-1.5396604,OPERATIONAL,false
Aboffour Health Centre,7.12986,-1.73294,6.946637099999999,-1.6674384,OPERATIONAL,false
Abuakwa Maternity Home,7.0,-2.0,6.7265134,-1.7288396,OPERATIONAL,false
Aburaso Methodist clinic,6.66133,-1.67662,6.661199,-1.6767047,OPERATIONAL,true
Achiase Health Centre,6.45543,-1.31004,6.7223203,-1.4694431,OPERATIONAL,false
Adidwan Health Centre,7.25163,-1.40278,7.251599999999999,-1.4028,OPERATIONAL,true
Adimposo CHPS,6.33659,-1.92588,6.3363996,-1.9261465,OPERATIONAL,true
Adom Hospital,6.61879,-1.19202,6.607823799999999,-1.2058015,OPERATIONAL,false
Adom Maternity Home,6.88364,-1.87334,6.2968394,-1.523047,OPERATIONAL,false
Adwumakase Kese Health Centre,6.80813,-1.53933,6.8153394,-1.5961692,OPERATIONAL,false
Afamaso Maternity Home,6.94912,-1.50873,7.0591789,-1.3970055,OPERATIONAL,false
Aframso Health Centre,7.14472,-1.12162,7.144699999999999,-1.1216,OPERATIONAL,true
Afrancho Health Centre,6.81527,-1.59589,6.7779925,-1.6439084,OPERATIONAL,false
Agogo Presby Hospital,6.79618,-1.08529,6.7951983,-1.0854999,OPERATIONAL,true
Agona Health Centre,6.93605,-1.49759,6.9361225,-1.4975872,OPERATIONAL,true
Agyenkwa Clinic,6.67522,-1.38159,6.6752316,-1.3814803,OPERATIONAL,true
Agyenkwa Clinic,6.20898,-1.67103,6.208920300000001,-1.6711089,OPERATIONAL,true
Ahenema kokoben Health Centre,6.62597,-1.64978,6.6262883,-1.6498887,OPERATIONAL,true
Ahenkro Health Centre,6.87155,-1.64009,6.8716896,-1.6413547,OPERATIONAL,true
Ahmadiya Muslim Hospital,6.84534,-1.38366,6.8451952,-1.3836336,OPERATIONAL,true
Ahmadiyaa Mission Hospital,6.50986,-1.53649,6.4592155,-1.57116,OPERATIONAL,false
Ahwene Memorial Hospital,6.45491,-1.57071,6.4592155,-1.57116,OPERATIONAL,true
Aim High Clinic,5.96717,-1.44993,5.967204499999999,-1.449982,OPERATIONAL,true
Akokuaso Health Centre,6.85355,-1.33583,6.853563899999999,-1.3358057,OPERATIONAL,true
Akomaa Memorial Hospital,6.43966,-1.53837,6.439541999999999,-1.5384219,OPERATIONAL,true
Akomadan Health Centre,7.40581,-1.96072,7.396032099999999,-1.9539106,NO DATA,false
Akrofrom Clinic,6.15348,-1.47621,6.153408199999999,-1.4762202,OPERATIONAL,true
Akrofrom Community Clinic,6.39651,-1.60783,6.741899999999999,-1.7297,OPERATIONAL,false
Akrofrom Health Centre,6.12385,-1.65387,6.1237129,-1.6538312,OPERATIONAL,true
Akrokerri Health Centre,6.29513,-1.63224,6.2974518,-1.6316411,OPERATIONAL,true
Akropong Health Centre,7.0,-2.0,5.981499899999999,-0.0779,OPERATIONAL,false
Akropong Maternity Home,7.0,-2.0,5.977963099999999,-0.08869479999999999,NO DATA,false
Akutreso Health Centre,6.09619,-1.29292,6.095461999999999,-1.295148,OPERATIONAL,true
Akwasiase Dressing Station,6.99498,-2.19887,6.995227700000001,-2.1989673,OPERATIONAL,true
Alice Memorial Maternity Clinic,6.99961,-2.17134,7.590645399999999,-1.946736,OPERATIONAL,false
All Souls Clinic,6.19852,-1.62881,N/A,N/A,NO DATA,false
Allen Health Clinic,6.08691,-1.69553,6.086831699999999,-1.6955737,OPERATIONAL,true
Amansan Clinic,6.19128,-1.65044,6.1827315,-1.6745567,OPERATIONAL,false
Amantenaman Health Centre,6.77005,-1.16254,6.6618447,-1.5498985,OPERATIONAL,false
Amponsah Konadu Memorial Maternity Home,6.79262,-1.47187,6.7155988,-1.5047464,OPERATIONAL,false
Ampunyasi Health Centre,6.05519,-1.73677,6.0552,-1.7368,OPERATIONAL,true
Anane Aya Maternity Home,6.99542,-2.19993,6.9952241,-2.1995076,OPERATIONAL,true
Ananekrom Health Centre,6.91527,-1.01533,6.915303199999999,-1.015248,OPERATIONAL,true
Anglican (Mobile) Eye Clinic,6.56615,-1.52066,6.5660756,-1.5206693,OPERATIONAL,true
Atonso/Agogo Fejiase clinic,6.61268,-1.55999,6.6127596,-1.5597238,OPERATIONAL,true
Brodekwanu Methodis Clinic,6.53546,-1.35365,6.612729100000001,-1.6829264,OPERATIONAL,false
CAMFAP Maternity Clinic,6.57933,-1.54404,6.5793634,-1.5441395,OPERATIONAL,true
Jachie Health Centre,6.56598,-1.52097,6.565930499999999,-1.5207626,OPERATIONAL,true
Kuntenase Government Hospital,6.53752,-1.47454,6.5374621,-1.4744583,OPERATIONAL,true
Lake Bosomtwi Methodist Clinic,6.48398,-1.37362,6.661199,-1.6767047,OPERATIONAL,false
Nyameani Methodist Clinic,6.56458,-1.43022,6.5624147,-1.4290449,OPERATIONAL,true
Piase CHPS,6.59099,-1.45151,N/A,N/A,NO DATA,false
SDA Clinic Konkoma,6.51291,-1.34849,6.5129,-1.3485,OPERATIONAL,true
Sophia Maternity Home,6.63159,-1.56147,N/A,N/A,NO DATA,false
St. Marys Anglican Clinic,6.54056,-1.54346,6.5409375,-1.5434219,OPERATIONAL,true
St. Micheal Hospital,6.55872,-1.51247,6.5588721,-1.512392,OPERATIONAL,true
Tetrefu Health Centre,6.62487,-1.53468,6.618276199999999,-1.5154216,OPERATIONAL,false
God's Grace Maternity Home,6.5016785,-1.4144827,9.633691599999999,6.542506400000001,OPERATIONAL,false
Anyinam Clinic,6.19897,-1.68205,6.1827315,-1.6745567,OPERATIONAL,false
Anyinasuso Health Centre,6.95913,-2.10037,6.959099999999999,-2.1004,OPERATIONAL,true
Anyinasuso Maternity Home,6.95871,-2.10015,N/A,N/A,NO DATA,false
Anyinasusu SDA Centre,7.01484,-1.70874,7.0171719,-1.7095613,OPERATIONAL,true
Anyinofi Health Centre,7.42528,-0.77045,7.425422999999999,-0.8760557999999999,OPERATIONAL,false
Apaa Maternity Home,6.95511,-1.43465,7.045168899999999,-1.3992532,OPERATIONAL,false
Apromase Health Centre,6.67085,-1.49543,6.670899899999999,-1.4954,OPERATIONAL,true
Asaam Health Clinic,7.11732,-1.46598,7.0561,-1.399,OPERATIONAL,false
Asempa   Maternity and Clinic,6.19924,-1.68233,6.199292199999999,-1.6822966,OPERATIONAL,true
Ahenema kokoben Health Centre,6.62597,-1.64978,6.6262883,-1.6498887,OPERATIONAL,true
Bebu Methodist Clinic,6.61154,-1.68505,6.612729100000001,-1.6829264,OPERATIONAL,true
Eye Adom Maternity Home,6.61458,-1.65857,6.7161998,-0.8172336,OPERATIONAL,false
Foase Health Centre,6.63751,-1.75124,6.637499999999999,-1.7512,OPERATIONAL,true
Kwanwoma Health Centre,6.62865,-1.63524,6.5757384,-1.6317648,OPERATIONAL,false
Trabuom Health Centre,6.61142,-1.76252,6.611398299999999,-1.7623365,OPERATIONAL,true
Trede Health Centre,6.57803,-1.66859,6.5779983,-1.6686182,OPERATIONAL,true
Nweneso III Health Centre,6.5972124,-1.578999399,6.566999999999999,-1.779,OPERATIONAL,false
Asiwa Health Centre,6.42344,-1.33434,6.4232511,-1.3345143,OPERATIONAL,true
Asokwa Health Centre,6.28068,-1.50786,6.239219599999999,-1.4992103,OPERATIONAL,false
Essuowin Health Centre,6.53656,-1.86502,6.5366,-1.865,OPERATIONAL,true
Asubuasu Health Centre,7.31624,-1.23529,7.316199999999999,-1.2353,OPERATIONAL,true
Asuofua Health Centre,7.0,-2.0,6.7265134,-1.7288396,OPERATIONAL,false
Ataasi Health Centre,5.96664,-1.36454,5.9665174,-1.3647572,OPERATIONAL,true
Atonsu Health Centre,7.02372,-1.30912,7.0170191,-1.3148892,OPERATIONAL,false
Atwereboana Clinic,5.96235,-1.34213,5.9624,-1.3421,OPERATIONAL,true
Atwima Clinic,7.0,-2.0,6.7265134,-1.7288396,OPERATIONAL,false
Avril Clinic,6.19802,-1.62953,N/A,N/A,NO DATA,false
Babaso MCH,7.34065,-1.32417,N/A,N/A,NO DATA,false
Banka Health Centre,6.29824,-1.21615,6.298199899999999,-1.2162,OPERATIONAL,true
Banko Health Centre,6.75822,-1.28473,6.9334022,-1.2618824,OPERATIONAL,false
Banso SDA Clinic,6.47584,-1.19674,6.475826199999999,-1.1967395,OPERATIONAL,true
Barekese Health Centre,7.0,-2.0,6.8581657,-1.7350502,OPERATIONAL,false
Barniekrom maternity home,6.54199,-2.17473,6.540968100000001,-2.1763421,NO DATA,true
Bebome Health Centre,6.86725,-1.09566,6.607823799999999,-1.2058015,OPERATIONAL,false
Bebu Methodist Clinic,6.61154,-1.68505,6.612729100000001,-1.6829264,OPERATIONAL,true
Bekwai Government Hospital,6.45605,-1.57857,6.4592155,-1.57116,OPERATIONAL,false
Benim Health Centre,7.09054,-1.46459,7.0892254,-1.4688483,NO DATA,true
Beposo Health Centre,6.98526,-1.35503,6.9854682,-1.3554012,OPERATIONAL,true
Bethel Maternity Home,6.64692,-1.90327,5.3425074,-0.6296676999999999,OPERATIONAL,false
Betiako Health Centre,6.86638,-2.20685,6.8663978,-2.2068926,OPERATIONAL,true
Beyerebon No.5 Health Centre,6.39211,-2.18134,6.3921,-2.1812999,OPERATIONAL,true
Birem Health Centre,7.22732,-0.99197,7.012809,-1.3793033,OPERATIONAL,false
Boamang Health Centre,6.94073,-1.61705,6.936052800000001,-1.6138275,OPERATIONAL,false
Boanim Health Centre,7.03482,-1.48741,7.0348619,-1.4874518,OPERATIONAL,true
Bodwesango St Louis Health Centre,6.22249,-1.31031,6.2838863,-1.4194307,OPERATIONAL,false
Bomfa Health Centre,6.59635,-1.29933,6.5964,-1.2992999,OPERATIONAL,true
Bompata Health Centre,6.66727,-1.08393,6.6673,-1.0839,OPERATIONAL,true
Bonsua Health Centre,6.93485,-1.67615,6.9376383,-1.6749262,OPERATIONAL,true
Bonwire Clinic,6.4716,-1.2846,6.7874623,-1.4791662,OPERATIONAL,false
Brahabebome Clinic,6.19444,-1.63014,6.1943559,-1.6301695,OPERATIONAL,true
Bryant  Mission Hospital,6.1131,-1.3844,6.1916761,-1.6459874,OPERATIONAL,false
Cecilia Maternity  Home,6.19886,-1.65574,5.962036299999999,-1.7771346,OPERATIONAL,false
Central Market Clinic,6.20591,-1.67031,6.205883099999999,-1.6703122,OPERATIONAL,true
Christ Our Hope Maternity Home,6.75486,-1.52744,N/A,N/A,NO DATA,false
Christ Our Saviour Clinic,6.51142,-1.85217,6.5114,-1.8522,OPERATIONAL,true
Church of Christ Mission Clinic,6.71394,-1.42827,6.6817835,-1.5818426,OPERATIONAL,false
Church of God Clinic,6.66053,-1.44979,6.660585699999999,-1.4498937,OPERATIONAL,true
Community Health Centre,6.66848,-1.84016,6.6011707,-2.1096703,OPERATIONAL,false
Cross Medical Centre,7.00829,-1.37595,7.0079841,-1.376041,OPERATIONAL,true
Daasebre Maternity Home,6.62776,-1.21314,N/A,N/A,NO DATA,false
Dadiase Health Centre,6.88078,-1.36776,6.9361225,-1.4975872,OPERATIONAL,false
Dakopon Hospital,6.72086,-1.49322,6.7207705,-1.493201,OPERATIONAL,true
Datano Health Post,6.29398,-1.97098,N/A,N/A,NO DATA,false
Detieso Community Clinic,6.47674,-1.44168,6.4767,-1.4417,OPERATIONAL,true
Domeabra Health Centre,6.93864,-1.55757,6.9386,-1.5576,OPERATIONAL,true
Dompoase Benito Menni Health Centre,6.32282,-1.54468,6.322627499999999,-1.5444488,OPERATIONAL,true
Dora Maternity Clinic,6.4804,-1.4951,N/A,N/A,NO DATA,false
Dorcas Memorial Clinic,7.39694,-1.95297,7.3968789,-1.9530138,OPERATIONAL,true
Duasi Community Clinic,6.46863,-1.39522,6.468599999999999,-1.3952,OPERATIONAL,true
Dwease Health Centre,6.53747,-1.24407,6.607823799999999,-1.2058015,OPERATIONAL,false
Dwendwenase Health Centre,6.41223,-1.19934,6.412199999999999,-1.1993,OPERATIONAL,true
Ebenezer Methodist Clinic,6.65865,-1.84306,6.658699899999999,-1.8431,OPERATIONAL,true
Edwafo Health Centre,6.19675,-1.57367,5.7996912,-0.4906292,OPERATIONAL,false
Effiduase District Hospital,6.84739,-1.39373,6.847562399999999,-1.3935025,OPERATIONAL,true
Effiduase Trust Maternity Home,6.84821,-1.39412,6.847562399999999,-1.3935025,OPERATIONAL,true
Ejisu Health Centre,6.72103,-1.47028,6.720780100000001,-1.4703924,OPERATIONAL,true
Ejura District Hospital,7.38906,-1.35197,7.389078899999999,-1.3517506,OPERATIONAL,true
Ejura MCH,7.36556,-1.34358,7.3926839,-1.4048249,NO DATA,false
Ejuratia Health Centre,6.82287,-1.52227,6.8227613,-1.5224294,OPERATIONAL,true
Emmanuel  Maternity  Home,6.19235,-1.64475,6.2048258,-1.6704209,OPERATIONAL,false
Enso Nyameye Maternity Home,7.37894,-1.35796,N/A,N/A,NO DATA,false
Essienkyem Health Centre,6.97584,-1.84784,6.326269600000001,-0.3274755,OPERATIONAL,false
Everest Hospital,7.0,-2.0,6.699348199999999,-1.729227,OPERATIONAL,false
Eye Adom Maternity Home,6.61458,-1.65857,6.7161998,-0.8172336,OPERATIONAL,false
Family Care Hospital,6.81614,-1.47675,6.8108285,-1.6384332,OPERATIONAL,false
Fawade Nkanta Clinic,6.81047,-1.63866,6.8103884,-1.6386559,OPERATIONAL,true
Foase Health Centre,6.63751,-1.75124,6.637499999999999,-1.7512,OPERATIONAL,true
Fomena Health Centre,6.28022,-1.51002,6.2801177,-1.5099968,OPERATIONAL,true
Fumso Health Centre,6.11048,-1.44854,6.1105,-1.4484999,OPERATIONAL,true
Fumso-Ketewa Health Centre,6.29675,-1.63103,6.296799999999999,-1.631,OPERATIONAL,true
Gladys Maternity Home,6.78875,-1.56109,N/A,N/A,NO DATA,false
Global Evangelical Mission Hospital,6.66903,-1.49298,6.669240500000001,-1.4943326,OPERATIONAL,true
God is Able Maternity Home,7.0,-2.0,6.703244400000001,-1.7420275,OPERATIONAL,false
Grace Maternity Home and Clinic,6.73257,-1.46146,6.6899064,-1.6081486,OPERATIONAL,false
Gyasikrom Health Centre,6.40145,-1.47313,6.4015,-1.4731,OPERATIONAL,true
Gyreso RCH,6.47006,-2.41673,6.470039,-2.4166272,OPERATIONAL,true
Homako Community Clinic,7.42915,-1.45106,7.429200000000001,-1.4511,OPERATIONAL,true
Humble Maternity Home,6.71479,-1.52225,6.741334999999999,-1.6053758,OPERATIONAL,false
Huttel Health Centre,6.61582,-1.34007,6.6157825,-1.3400006,OPERATIONAL,true
Hwidiem Community Clinic,5.89432,-1.46766,5.894299999999999,-1.4677,OPERATIONAL,true
Ideal Homoepatic Clinic,6.20564,-1.68425,6.205597699999999,-1.6841747,OPERATIONAL,true
Isaaka Akura Health Centre,7.41542,-1.13783,6.9361225,-1.4975872,OPERATIONAL,false
Jalua  Maternity Home,6.81462,-1.64877,N/A,N/A,NO DATA,false
Jamasi Health Centre,6.97753,-1.47255,6.9361225,-1.4975872,OPERATIONAL,false
Jeduako Clinic,7.09501,-1.20917,7.0950012,-1.209201,OPERATIONAL,true
Jemina Maternity Home,6.20313,-1.66816,6.2048258,-1.6704209,OPERATIONAL,true
Jesus Is Lord Maternity Home,6.73865,-1.51092,6.738545999999999,-1.5108377,OPERATIONAL,true
Joy Maternity Home,6.79962,-1.64543,6.7237369,-1.6344132,OPERATIONAL,false
Juaben Government Hospital,6.81602,-1.41392,6.8167068,-1.4137093,OPERATIONAL,true
Juansa Health Centre,6.72336,-1.12734,6.7186642,-1.1329034,NO DATA,false
Juaso District Hospital,6.59223,-1.12113,6.5824286,-1.1209121,NO DATA,false
Keniago CHPS,6.37344,-2.01764,6.3692775,-2.0191103,NO DATA,true
Kenyasi Health Centre,6.78507,-1.56655,6.975527,-2.385904,OPERATIONAL,false
KofiKrom Clinic,6.19624,-1.68043,6.1962003,-1.6805073,OPERATIONAL,true
Kofiase Health Centre,7.14113,-1.48363,7.1410876,-1.4836192,OPERATIONAL,true
Kokofu General Hospital,6.49903,-1.52254,6.498815,-1.523125,OPERATIONAL,true
Kona Health Centre,6.86776,-1.51231,6.867563199999999,-1.5122246,OPERATIONAL,true
Konongo-Odumasi Government Hospital,6.62436,-1.21792,6.607823799999999,-1.2058015,OPERATIONAL,false
Krobo Health Centre,7.07457,-1.42352,7.074563599999999,-1.4234361,OPERATIONAL,true
Kumawu Health Centre,6.90708,-1.26803,6.9084324,-1.2794158,OPERATIONAL,false
Komeso Health Centre,6.46154,-1.06901,6.4615,-1.069,OPERATIONAL,true
Kwamang Health Centre,6.89664,-1.62457,6.887878499999999,-1.6138259,OPERATIONAL,false
Kwamang Health Centre,6.98188,-1.26961,6.887878499999999,-1.6138259,OPERATIONAL,false
Kwanwoma Health Centre,6.62865,-1.63524,6.5757384,-1.6317648,OPERATIONAL,false
Kwaso Health Centre,6.62771,-1.44722,6.633332999999999,-1.45,NO DATA,false
Kyekyewere Health Centre,7.14538,-1.63944,7.1454,-1.6394,OPERATIONAL,true
Life Land Clinic,6.62067,-1.20373,6.8769125,-1.0203224,NO DATA,false
Maakro Clinic,7.0,-2.0,6.699348199999999,-1.729227,OPERATIONAL,false
Matang Clinic,6.99615,-2.21651,6.9961071,-2.2160139,OPERATIONAL,true
Madoma Maternity Clinic,6.72093,-1.45015,6.7108238,-1.6077087,OPERATIONAL,false
Mama Tina Maternity Home,6.71524,-1.50509,6.7155988,-1.5047464,OPERATIONAL,true
Mampong District Hospital,7.04563,-1.40219,7.042028699999999,-1.4069374,OPERATIONAL,false
Mampong Quality Hospital,7.04621,-1.40195,7.070746,-1.4015092,OPERATIONAL,false
Mamponteng Health Centre,6.83295,-1.47695,6.7908092,-1.5608425,OPERATIONAL,false
Manfo Health Centre,6.94531,-2.23044,6.936052800000001,-1.6138275,OPERATIONAL,false
Mankranso Hospital,6.82076,-1.86278,6.8208401,-1.86284,OPERATIONAL,true
Manso Abore Health Centre,6.44627,-1.97764,6.4464273,-1.9777031,OPERATIONAL,true
Manso Edubia Health Centre,6.40256,-1.92957,6.4025132,-1.9294143,OPERATIONAL,true
Manso Nkwanta Maternity Home,6.47682,-1.87916,6.4696004,-1.8866802,NO DATA,false
Manso Tontokrom Health Centre,6.24929,-1.99483,6.248999899999999,-2.0001839,OPERATIONAL,false
Mansonso Health Centre,6.04547,-1.58955,6.0455,-1.5895999,OPERATIONAL,true
Marben Maternity,6.35241,-1.67799,N/A,N/A,NO DATA,false
Meduma Clinic,6.79089,-1.56091,6.790906,-1.5605895,OPERATIONAL,true
Memorial Maternity Home,6.72122,-1.52589,6.720780100000001,-1.4703924,OPERATIONAL,false
Methodist Faith Healing Hospital,6.84819,-1.54934,6.8479057,-1.5494417,OPERATIONAL,true
Mile 14 Community Clinic,6.22126,-1.82139,6.221299999999999,-1.8214,OPERATIONAL,true
Morso Clinic,6.65518,-1.10681,6.6536765,-1.1073679,NO DATA,true
Mother of God Clinic,6.55942,-1.89046,6.5594,-1.8905,OPERATIONAL,true
Mpasaso Health Centre,6.80274,-2.13864,6.8027,-2.1386,OPERATIONAL,true
Mpatuom RCH,6.54088,-1.93215,6.538056,-1.9348729,OPERATIONAL,true
Mpobi RCH,6.84775,-1.56165,6.853835699999999,-1.6178011,NO DATA,false
Muranaim Health Centre,6.24703,-1.20566,6.247,-1.2057,OPERATIONAL,true
Nadaworoma Clinic,7.06598,-1.40213,7.0641709,-1.4013181,OPERATIONAL,true
Nana Frema Maternity Home,7.0,-2.0,5.8731475,-2.4085179,OPERATIONAL,false
Nancy Powel's Clinic,6.31788,-1.30804,6.458472,-1.5702158,CLOSED_PERMANENTLY,false
Neighbourhood    Clinic,6.21889,-1.67117,6.2192735,-1.6711953,OPERATIONAL,true
New Ayaasi Adom Maternity Home,6.29641,-1.52338,6.2968394,-1.523047,OPERATIONAL,true
New Edubiase Hospital,6.05456,-1.39281,6.029514499999999,-1.3337516,OPERATIONAL,false
New Life Clinic,6.47284,-1.43677,6.6525824,-1.6340353,OPERATIONAL,false
Nipankyeremia CHPS,6.37002,-2.15827,6.3694429,-2.157277,OPERATIONAL,true
Nkawie/Toase Hospital,7.0,-2.0,6.6646255,-1.8108069,OPERATIONAL,false
Nkenkasu District Hospital,7.31957,-1.90289,7.3193367,-1.9035064,OPERATIONAL,true
Nkwanta Community Clinic,7.51378,-1.34725,6.4664394,-1.8766237,OPERATIONAL,false
Nnadieso Health Centre,6.59956,-1.092061,6.5996,-1.0921,OPERATIONAL,true
Nobewam SDA Clinic,6.62289,-1.23985,6.6242714,-1.2940109,OPERATIONAL,false
Nsutaman Health Centre,7.00861,-1.38146,7.008599999999999,-1.3815,OPERATIONAL,true
Ntobroso Health Centre,6.53571,-2.04245,6.535699999999999,-2.0425,OPERATIONAL,true
Numereso Health Centre,6.07568,-1.85459,6.6918738,-1.5272364,OPERATIONAL,false
Nutrition Rehabilitation Centre,6.79529,-1.08871,6.795210699999999,-1.0889184,OPERATIONAL,true
Nyama Maternity Home,7.0,-2.0,6.7265134,-1.7288396,OPERATIONAL,false
Nyame Akwan Maternity,6.54096,-1.93229,6.373269,-0.5392295,OPERATIONAL,false
Nyinahin Government Hospital,6.60115,-2.10999,6.601017199999999,-2.1101107,OPERATIONAL,true
Obogu Health Centre,6.51484,-1.11586,6.5163176,-1.1210517,OPERATIONAL,false
Obonsu Clinic,5.95324,-1.35225,5.9532,-1.3523,OPERATIONAL,true
Obuasi Government Hospital,6.1213,-1.4105,6.203494000000001,-1.6848578,OPERATIONAL,false
Odaho RCH,6.27381,-1.96832,6.446933899999999,-1.8708613,NO DATA,false
Offinso Health Centre,6.93782,-1.67504,6.9376383,-1.6749262,OPERATIONAL,true
Ofoase Health Centre,6.37813,-1.26746,6.3781,-1.2675,OPERATIONAL,true
Okaikrom Health Centre,6.82612,-1.30866,6.826099999999999,-1.3087,OPERATIONAL,true
"Catholic Clinic, Oku",7.34796,-1.00318,7.348,-1.0032,OPERATIONAL,true
Owusua Maternity Home,6.77474,-1.63906,6.704341899999999,-1.5840343,OPERATIONAL,false
Oyoko Our Lady Maternity Home,6.86521,-1.38976,N/A,N/A,NO DATA,false
Paradyse Clinic,6.72105,-1.47262,6.7210579,-1.4727735,OPERATIONAL,true
Peace and Comfort Maternity Clinic,6.89428,-1.25522,6.8942616,-1.2550093,OPERATIONAL,true
Peace Homeo Medical Centre,7.0,-2.0,5.5660083,-0.2473783,OPERATIONAL,false
Peminase Maternity Home,6.52668,-1.31086,N/A,N/A,NO DATA,false
Pokukrom Health Centre,7.00378,-1.95239,7.0037065,-1.9523837,OPERATIONAL,true
Praaso Health Centre,6.51556,-1.26672,6.5139293,-0.9789385,OPERATIONAL,false
Quality Care Clinic,6.95019,-1.67263,6.9523685,-1.6719593,OPERATIONAL,true
Queen Victoria Maternity Home and Clinic,6.72345,-1.47869,6.6666035,-1.6163247,OPERATIONAL,false
Redemption Bible Way Clinic and Laboratory,6.20121,-1.66393,6.2012484,-1.6638317,OPERATIONAL,true
Resolute Amansie,6.34571,-1.98979,6.446933899999999,-1.8708613,NO DATA,false
Rev. Walker Medical Centre,6.71394,-1.52192,5.6196294,-0.1133155,OPERATIONAL,false
Rose Maternity Home,6.52025,-1.12042,6.7584544,-1.5677493,OPERATIONAL,false
Sabronum  Health Centre,7.08809,-1.89095,7.0881,-1.891,OPERATIONAL,true
Sacred Heart Maternity Clinic,7.08676,-1.55514,7.086817,-1.555176,OPERATIONAL,true
Saakrom Health Centre,6.75871,-2.02993,6.758712,-2.0299397,OPERATIONAL,true
Salvation Army Clinic,7.05213,-1.52521,5.603215400000001,-0.7913226,OPERATIONAL,false
SDA Clinic Apaa,6.97086,-1.44302,N/A,N/A,NO DATA,false
SDA Hospital,6.3104,-1.3911,6.4592155,-1.57116,OPERATIONAL,false
SDA Hospital,6.68001,-1.54161,6.6666035,-1.6163247,OPERATIONAL,false
SDA Hospital Asamang,7.05322,-1.50964,6.9025941,-1.4329527,OPERATIONAL,false
SDA Hospital Wiamoase,6.90258,-1.43311,7.0522015,-1.5186589,OPERATIONAL,false
Sekyedumase Health Centre,7.31352,-1.57912,7.313370499999999,-1.5789735,OPERATIONAL,true
Sekyere Health Centre,6.92692,-1.37465,6.862069399999999,-1.3984946,OPERATIONAL,false
Sekyere Methodist Clinic,6.92646,-1.37494,6.926501099999999,-1.3748211,OPERATIONAL,true
Senchie Methodist Clinic,6.80818,-1.32507,6.8082179,-1.3250602,OPERATIONAL,true
Shalom Clinic,6.25351,-1.91797,6.2535,-1.918,OPERATIONAL,true
Shalom Methodist Clinic,6.36494,-1.36645,6.4592155,-1.57116,OPERATIONAL,false
Sikaman Health Centre,6.11499,-1.58045,6.114999999999999,-1.5805,OPERATIONAL,true
Sister Philipa Maternity Home,7.05921,-1.39703,7.0591789,-1.3970055,OPERATIONAL,true
Sreso Tinpom Health Centre,6.62201,-2.30317,6.6291866,-2.3036412,OPERATIONAL,false
St Luke Clinic,6.79774,-1.32026,7.482854799999999,-1.280153,OPERATIONAL,false
St. Annes Maternity Clinic,6.63994,-1.49782,6.6484188,-1.6094762,OPERATIONAL,false
St. Anns Maternity Home,6.84578,-1.76006,6.6484188,-1.6094762,OPERATIONAL,false
St. Anthony Maternity Clinic,7.22643,-1.58011,6.6397793,-1.4979578,OPERATIONAL,false
St. Edwards Clinic,6.88014,-1.87428,6.8801,-1.8743,OPERATIONAL,true
St. Johns Clinic,6.87183,-2.05678,N/A,N/A,NO DATA,false
St. Joseph's Clinic.,6.77928,-1.49126,6.853964,-1.5789993,OPERATIONAL,false
St. Jude Hospital  Ltd.,6.20723,-1.68137,6.207074,-1.6815096,OPERATIONAL,true
St. Luke Hospital Kasei,7.53953,-1.34637,7.482854799999999,-1.280153,OPERATIONAL,false
St. Martin's  Hospital,6.41337,-1.88154,6.4136776,-1.8813509,OPERATIONAL,true
St. Martin's Catholic Clinic,6.31346,-2.10902,6.4136776,-1.8813509,OPERATIONAL,false
St. Mary's Clinic,6.45121,-1.36836,6.4592155,-1.57116,OPERATIONAL,false
St. Michael Clinic,6.85935,-1.75623,6.5588721,-1.512392,OPERATIONAL,false
St. Micheal Maternity Home,7.0,-2.0,6.5588721,-1.512392,OPERATIONAL,false
St. Patricks Hospital,6.93135,-1.68167,6.9501441,-1.6663481,OPERATIONAL,false
St. Peters Clinic,6.53511,-2.04218,6.5351,-2.0421999,OPERATIONAL,true
St. Peters' Hospital,6.34331,-1.66669,6.3491939,-1.6736808,OPERATIONAL,false
St. Stephen's Clinic,6.4804,-1.4951,6.458472,-1.5702158,CLOSED_PERMANENTLY,false
St. Theresa's Maternity Home,6.76359,-1.61093,N/A,N/A,NO DATA,false
St. Thomas General and Maternity Clinic,6.20804,-1.77649,6.2078925,-1.7763439,OPERATIONAL,true
St. Vincent Clinic,7.00714,-1.12747,N/A,N/A,NO DATA,false
Subriso Health Centre,6.81613,-2.26676,7.0035,-2.1681,OPERATIONAL,false
Super Care Hospital,6.72023,-1.48104,6.701774299999999,-1.5348253,OPERATIONAL,false
Tano-Odumasi Health Centre,6.49705,-2.39662,6.4971,-2.3966,OPERATIONAL,true
Tepa District Hospital,6.99966,-2.16102,6.99991,-2.1610617,OPERATIONAL,true
Tetrem Health Centre,7.03743,-1.63735,7.038961199999999,-1.634806,OPERATIONAL,true
The Queens Maternity Home,6.20762,-1.67233,6.2048258,-1.6704209,OPERATIONAL,true
Tikrom Clinic,6.73154,-1.51337,6.731491699999999,-1.5133947,OPERATIONAL,true
Tinkwamah Maternity Home,6.45139,-1.56537,6.4552473,-1.5786413,OPERATIONAL,false
Toase Clinic,7.0,-2.0,6.7265134,-1.7288396,OPERATIONAL,false
Trabuom Health Centre,6.61142,-1.76252,6.611398299999999,-1.7623365,OPERATIONAL,true
Trede Health Centre,6.57803,-1.66859,6.5779983,-1.6686182,OPERATIONAL,true
Twumwaa Maternity Home,6.19277,-1.62455,6.201197800000001,-1.6912212,OPERATIONAL,false
Victory Christ Maternity Home,6.65836,-1.84223,6.687948,-1.5757554,OPERATIONAL,false
Watt 250 Maternity  Home,6.19917,-1.65556,N/A,N/A,NO DATA,false
Westphalian Hospital Complex,6.86802,-1.39049,6.8652504,-1.3951694,OPERATIONAL,false
Wiamoase Clinic,7.05264,-1.50265,7.051087099999999,-1.5230329,OPERATIONAL,false
Wioso Health Centre,6.28179,-1.66127,6.281799899999999,-1.6613,OPERATIONAL,true
Wioso Methodist Clinic,6.95583,-2.00654,6.9558,-2.0065,OPERATIONAL,true
Wonoo Health Centre,6.79751,-1.50148,6.797566900000001,-1.5014738,OPERATIONAL,true
Woraso Health Centre,6.87636,-1.27658,6.8764523,-1.2767514,OPERATIONAL,true
Yaa Asantewaa Maternity Clinic,6.72505,-1.46998,6.7136551,-1.4670471,OPERATIONAL,false
Zambrama Community Clinic,7.52022,-1.42013,4.935745499999999,-2.3550607,OPERATIONAL,false
Agogo Nurses Training Coll,6.8769125,-1.020322399,6.7953606,-1.0837157,OPERATIONAL,false
Offinso Nurses/Midwifery Training School,6.8174259999,-1.3335824,6.9477248,-1.6819177,OPERATIONAL,false
Fomena Community Health Nurses Training School,6.2775431999999,-1.6372149999,6.2817792,-1.5100141,OPERATIONAL,false
Kokofu Health Assistants Training School,6.44999999,-1.5833333,6.4973059,-1.5192528,OPERATIONAL,false
Tepa Health Assistants Training School,6.9584844,-2.263039299,7.0203688,-2.1367208,OPERATIONAL,false
Juaso SABS Hospital,6.53445749999,-1.09694,6.5923674,-1.121232,OPERATIONAL,false
Pra River Apostolic Clinic,6.53445749999,-1.09694,6.599399999999999,-0.9559,OPERATIONAL,false
Abuakwa Madonna Health Centre,6.5972124,-1.57899939999992,6.7002,-1.7192,OPERATIONAL,false
Nkawie Clinic,6.5972124,-1.57899939999992,6.7265134,-1.7288396,OPERATIONAL,false
Achiase Nyama Maternity Home,6.5972124,-1.57899939999992,6.7265134,-1.7288396,OPERATIONAL,false
Nerebehi Health Centre,6.5972124,-1.57899939999992,6.699099899999999,-1.8077,OPERATIONAL,false
Anyinamso Maternity Home,6.6588391,-2.22366669999996,N/A,N/A,NO DATA,false
Mpasatia Health Centre,6.6588391,-2.22366669999996,6.6614501,-1.8414181,OPERATIONAL,false
Kotokuom Health Centre,6.6588391,-2.22366669999996,6.679688,-1.9854217,OPERATIONAL,false
Anyinasu SDA Clinic,7.38333329999999,-1.36666669999999,7.0171719,-1.7095613,OPERATIONAL,false
Ante Amma Maternity Home,6.9584844,-2.26303929999994,N/A,N/A,NO DATA,false
Adom Nyame Clinic,6.9584844,-2.26303929999994,6.8161403,-1.4767714,OPERATIONAL,false
Janet Maternity Home,6.9584844,-2.26303929999994,N/A,N/A,NO DATA,false
Mampong Municipal Health Directorate,6.9584844,-2.26303929999994,7.0511694,-1.4057869,OPERATIONAL,false
Mampong Midwifery Training School,7.02345,-1.23598,7.0430119,-1.3999968,OPERATIONAL,false
Mampong Health Assistants Training School,7.02321,-0.23593,7.0430119,-1.3999968,OPERATIONAL,false
Mampong Government Hospital,7.060683,-1.404434,7.0561,-1.399,OPERATIONAL,false
Mampong Phillipa  Maternity Home,7.060683,-1.404434,7.0591789,-1.3970055,OPERATIONAL,false
Mampong Nadaworoma Maternity Home,7.060683,-1.404434,7.045168899999999,-1.3992532,OPERATIONAL,false
Adidwan Health Centre,7.15067,-0.24102,7.251599999999999,-1.4028,OPERATIONAL,false
Mampong Quality Hospital,7.15067,-0.24102,7.070746,-1.4015092,OPERATIONAL,false
Apaa Sda Clinic,7.15067,-0.24102,6.9025941,-1.4329527,OPERATIONAL,false
Asonomaso Government Hospital,6.80162,-1.51374,6.853964,-1.5789994,OPERATIONAL,false
Atimatim osei Yeboah Clinic,7.0469952,-1.63721499999996,6.764459,-1.6109925,NO DATA,false
Ahwiaa Maame Rose Maternity,6.75832,-1.56736,6.7584544,-1.5677493,OPERATIONAL,true
Adanwomase Eye Awurade Maternity Home,6.79153,-1.4955,6.762078900000001,-1.5660946,OPERATIONAL,false
Wamase Health Centre,6.1507611,-1.44346900000005,6.653099999999999,-1.6494,OPERATIONAL,false
Wuriyie Clinic,6.1507611,-1.44346900000005,N/A,N/A,NO DATA,false
Biemso Health Centre,6.1507611,-1.44346900000005,6.9854682,-1.3554012,OPERATIONAL,false
Wioso Health Centre,6.1507611,-1.44346900000005,6.9118463,-2.0358115,OPERATIONAL,false
Anitemfe Health Centre,6.1507611,-1.44346900000005,6.907299999999999,-2.1004,OPERATIONAL,false
Asuadei Eno Mary Maternity Home,6.1507611,-1.44346900000005,N/A,N/A,NO DATA,false
Asokore Ahmadyya Muslem Hospital,7.17828169999999,-0.829400200000009,6.8451952,-1.3836336,OPERATIONAL,false
Tweapease Clinic,6.2767655,-1.8708613,6.142631,-1.7388693,OPERATIONAL,false
Fenaso Chps,6.2767655,-1.8708613,6.277036700000001,-1.7928402,NO DATA,false
Dunkura  Health  Centre,nan,nan,N/A,N/A,N/A,false
Yapesa St.Mary Clinic,nan,nan,N/A,N/A,N/A,false
Obuasi Municipal Health Directorate,6.0228947,-1.71495800000002,N/A,N/A,NO DATA,false
Esaase Bontefufuo Mother Of God Clinic,6.4466432,-1.94902100000001,6.560825299999999,-1.8859812,NO DATA,false
Manso Nkran Amansie Resources Clinic,6.4466432,-1.94902100000001,6.4022389,-1.9299839,OPERATIONAL,false
Aborso Clinic,6.4466432,-1.94902100000001,N/A,N/A,NO DATA,false
Watreso Methodist Shalom Clinic,6.4466432,-1.94902100000001,6.247999999999999,-1.9161,OPERATIONAL,false
Ankam Community Clinic,6.4466432,-1.94902100000001,6.3941,-1.868,OPERATIONAL,false
Mpraniase Chps,6.4466432,-1.94902100000001,6.446933899999999,-1.8708613,NO DATA,false
Manso Nkran Chps,6.4466432,-1.94902100000001,6.4022389,-1.9299839,OPERATIONAL,false
Aboaboso Chps,6.4466432,-1.94902100000001,5.175633599999999,-1.6426768,NO DATA,false
Akyekyerekrom Chps,6.4466432,-1.94902100000001,6.7229614,-1.5232832,NO DATA,false
Konongo Adom Hospital,6.8769125,-1.02032239999994,6.607823799999999,-1.2058015,OPERATIONAL,false
Konongo Patience Clinic,6.8769125,-1.02032239999994,6.607823799999999,-1.2058015,OPERATIONAL,false
Nyamebekyere Cliinic,6.597212,-1.578999,5.1284364,-2.4769638,OPERATIONAL,false
Bebu Emmanuel Methodist Clinic,6.5972124,-1.57899939999992,6.612729100000001,-1.6829264,OPERATIONAL,false
Brofoyedru Eye Adom Maternity Clinic,6.5972124,-1.57899939999992,6.2968394,-1.523047,OPERATIONAL,false
Nweneso Iii Health Centre,6.5972124,-1.57899939999992,6.566999999999999,-1.779,OPERATIONAL,false
4 Medical Research Station,6.80813,-1.53933,6.6906219,-1.6263929,OPERATIONAL,false
Abrafi Memorial Hospital,6.81527,-1.59589,6.710662399999999,-1.6068846,OPERATIONAL,false
Abu Clinic,9.77791,-1.64411,6.701094400000001,-1.7165503,OPERATIONAL,false
Academy Clinic,6.78837,-1.56135,6.7067923,-1.5675403,OPERATIONAL,false
Adabie Hospital,6.75486,-1.52744,6.6681525,-1.6178258,OPERATIONAL,false
Adeb-Sab Maternity Home and Clinic,6.82287,-1.52227,6.6681525,-1.6178258,OPERATIONAL,false
Aded-Sab Maternity Home,6.84002,-1.55372,6.762078900000001,-1.5660946,OPERATIONAL,false
Adom Nyame Clinic,6.81614,-1.47675,6.8161403,-1.4767714,OPERATIONAL,true
Adum Clinic,6.81047,-1.63866,6.690576,-1.6204538,OPERATIONAL,false
AG Timbers Clinic,6.78875,-1.56109,6.788800699999999,-1.560949,OPERATIONAL,true
Agyeman Memorial Clinic,6.81462,-1.64877,6.7110749,-1.6130322,OPERATIONAL,false
Agyenkwa N'adom Clinic,6.79962,-1.64543,6.7997266,-1.6455089,OPERATIONAL,true
Agyenkwa Nyame Clinic,6.78507,-1.56655,6.7850375,-1.5666028,OPERATIONAL,true
Ahmadiya Hospital,6.74246,-1.55877,6.742283,-1.5588797,OPERATIONAL,true
Ahmadiya Muslim Clinic,6.83295,-1.47695,6.742283,-1.5588797,OPERATIONAL,false
Akyaa Memoria Hospital,6.79089,-1.56091,6.7908086,-1.5609771,OPERATIONAL,true
Alpha Maternity Home,6.84819,-1.54934,N/A,N/A,NO DATA,false
Amamata Memorial Maternity Home,6.84775,-1.56165,N/A,N/A,NO DATA,false
Amanfrom Clinic and Laboratory,6.77474,-1.63906,6.7748652,-1.6389307,OPERATIONAL,true
Amoah Memorial Hospital,6.77928,-1.49126,5.6193648,-0.2951677,OPERATIONAL,false
Ampabame Clinic,6.76359,-1.61093,6.7637182,-1.6109494,OPERATIONAL,true
Ampomaa Memorial Maternity Home,6.79751,-1.50148,6.7108238,-1.6077087,OPERATIONAL,false
Animah Clinic,6.65068,-1.59757,6.650669799999999,-1.5975986,OPERATIONAL,true
Animwaa Medical Centre,6.66518,-1.53521,6.664796399999999,-1.534815,OPERATIONAL,true
Anwiam Clinic,6.69071,-1.60138,6.6666035,-1.6163247,OPERATIONAL,false
Anwomaso Health Centre,6.69163,-1.52678,6.6918738,-1.5272364,OPERATIONAL,true
Apatrapa Health Centre,6.70711,-1.68302,6.709900699999999,-1.682338,OPERATIONAL,true
Asihene's Clinic,6.71224,-1.61212,6.7122003,-1.6122419,OPERATIONAL,true
Assalam Clinic,6.69779,-1.59361,6.6976979,-1.5936065,OPERATIONAL,true
Asuoyeboa Clinic,6.69233,-1.66871,6.692510899999999,-1.6686743,OPERATIONAL,true
Atasemanso Hospital,6.65207,-1.63318,6.6521916,-1.6330747,OPERATIONAL,true
Atsyor Hospital Complex,6.74975,-1.61764,6.749801499999999,-1.617634,OPERATIONAL,true
Atwima Timbers Clinic,6.66912,-1.61025,6.669009,-1.6102835,OPERATIONAL,true
Ayeduasi Health Centre,6.68665,-1.57294,6.675789399999999,-1.5610266,OPERATIONAL,false
Ayiwa Maternity Home,6.71566,-1.63377,6.7155209,-1.6336785,OPERATIONAL,true
Baby Pearl Maternity Home/Clinic,6.73838,-1.58911,6.7387231,-1.5875603,OPERATIONAL,true
Bantama Clinic,6.70515,-1.63551,6.705153699999999,-1.635425,OPERATIONAL,true
Bibiani Logging and Lumber Company Clin,6.66372,-1.60467,6.663062999999999,-1.6051362,OPERATIONAL,true
Bilsons Allens Clinic,6.67088,-1.58879,N/A,N/A,NO DATA,false
Bimpeh Hill Clinic,6.68167,-1.59926,6.6817616,-1.599177,OPERATIONAL,true
Bimpeh Hill Hospital Annex,6.70882,-1.61911,6.7088205,-1.6189484,OPERATIONAL,true
Boatemaa Maternity Home,6.71371,-1.56683,6.706117799999999,-1.6046894,OPERATIONAL,false
Boatemaa Memorial Hospital,6.70634,-1.60494,6.706117799999999,-1.6046894,OPERATIONAL,true
Bomso Specialist Hospital,6.68453,-1.57888,6.6845532,-1.578748,OPERATIONAL,true
Brainok Salvation Clinic,6.70479,-1.62295,6.704816399999999,-1.6229647,OPERATIONAL,true
Bremang Clinic,6.74166,-1.63088,6.7457842,-1.6428972,OPERATIONAL,false
Central Male  Prisons Clinic,6.69361,-1.62411,6.693588800000001,-1.6240922,OPERATIONAL,true
Central Maternity Home,6.74944,-1.60418,6.7337872,-1.6079988,OPERATIONAL,false
Central Maternity Home - ANNEX,6.73331,-1.63381,6.7337872,-1.6079988,OPERATIONAL,false
Charity Hospital,6.71818,-1.64221,6.7183757,-1.6421308,OPERATIONAL,true
Christ the King Clinic,6.66257,-1.60041,6.6614916,-1.5993896,OPERATIONAL,true
Church of Christ Mission,6.68583,-1.57932,6.7225361,-1.6446371,OPERATIONAL,false
City Hospital,6.68016,-1.60371,6.6864849,-1.6055113,OPERATIONAL,false
Clinic Ash Town Ltd.,6.70518,-1.61943,6.7053018,-1.6193179,OPERATIONAL,true
Coca Cola Bottling Clinic,6.66511,-1.60299,6.6646699,-1.6031102,OPERATIONAL,true
Cocoa Clinic,6.68368,-1.61667,6.6842863,-1.6166631,OPERATIONAL,true
Comfort Maternity Home,6.69561,-1.54194,6.681038,-1.5832592,OPERATIONAL,false
Complementary Clinic,6.66235,-1.57597,6.662321899999999,-1.5759718,OPERATIONAL,true
Cosmos Clinic,6.73039,-1.62736,6.7303405,-1.6270486,OPERATIONAL,true
County Hospital,6.72651,-1.65796,6.7265666,-1.6581483,OPERATIONAL,true
CPC Maternity and Clinic,6.75543,-1.68412,6.755298400000001,-1.6841115,OPERATIONAL,true
Dr. Brown Clinic,6.72655,-1.61519,6.7265166,-1.6151565,OPERATIONAL,true
Dr. Okyere Piese Clinic,6.71091,-1.60751,6.7109736,-1.6075641,OPERATIONAL,true
Dr. Osei Clinic,6.69939,-1.59017,6.6991347,-1.5901346,OPERATIONAL,true
Dr. Quaye Clinic,6.71272,-1.64283,6.712738499999999,-1.6428548,OPERATIONAL,true
Dunkirk Clinic,6.69216,-1.61853,6.692320199999999,-1.6184201,OPERATIONAL,true
Ebenezer Clinic,6.67824,-1.59234,6.7111962,-1.6405292,OPERATIONAL,false
Ebenezer Maternity Home,6.70995,-1.63812,6.7111962,-1.6405292,OPERATIONAL,true
Eliza Maternity Home,6.69491,-1.60748,N/A,N/A,NO DATA,false
Emahata Clinic,6.69256,-1.65813,6.6924252,-1.6579246,OPERATIONAL,true
Enec Dental Clinic,6.70338,-1.61768,6.7034942,-1.6175328,OPERATIONAL,true
Faith Clinic,6.69499,-1.62411,6.6949254,-1.6241699,OPERATIONAL,true
Faith Maternity Home,6.71477,-1.61574,N/A,N/A,NO DATA,false
Florence Maternity Home,6.68061,-1.59284,6.6804748,-1.5930073,OPERATIONAL,true
Gansmen's Medical Centre,6.74011,-1.62549,6.7438214,-1.628568,OPERATIONAL,false
Ghana Brewery Clinic,6.66385,-1.60114,6.6508413,-1.6075892,OPERATIONAL,false
Ghana Guiness Breweries Group Clinic,6.65085,-1.60757,6.6508413,-1.6075892,OPERATIONAL,true
Girbrines Health Services and Clinic,6.69477,-1.61418,6.6948599,-1.614445,OPERATIONAL,true
Gloria Memorial Hospital,6.69488,-1.60754,6.6950026,-1.6074369,OPERATIONAL,true
God First Clinic,6.71966,-1.62895,6.7198208,-1.628966,OPERATIONAL,true
God's Glory Maternity Clinic,6.75109,-1.63885,6.750981899999999,-1.6386612,OPERATIONAL,true
Graceland Clinic,6.74229,-1.63593,6.6623996,-1.5293241,OPERATIONAL,false
Habitat Sawmill Clinic,6.63872,-1.60925,6.638521099999999,-1.6092612,OPERATIONAL,true
Happy Day Maternity Home,6.75545,-1.64439,6.755880599999999,-1.6453306,OPERATIONAL,true
Hebrona Hospital,6.71107,-1.63417,6.71107,-1.6341699,OPERATIONAL,true
Histolic Adventist Clinic,6.73243,-1.63484,6.6589505,-1.5978717,OPERATIONAL,false
Holy Rosary Maternity Home,6.73081,-1.61914,N/A,N/A,NO DATA,false
Humble Maternity Home - Annex,6.74132,-1.60525,6.741334999999999,-1.6053758,OPERATIONAL,true
Islamic Homoepatic Clinic,6.74326,-1.60367,6.7433378,-1.6036799,OPERATIONAL,true
JCM Company Clinic,6.66571,-1.60766,6.6655273,-1.6077412,OPERATIONAL,true
Joy Maternity Home Clinic,6.72375,-1.63436,6.7851614,-1.5664646,OPERATIONAL,false
Kaase Maternity Home,6.65464,-1.60718,6.6546919,-1.6073715,OPERATIONAL,true
Kama Clinic,6.69851,-1.62143,6.698500200000001,-1.6216152,OPERATIONAL,true
Keffam Hospital,6.73951,-1.59561,6.7395635,-1.5956546,OPERATIONAL,true
Kezia Maternity Home and Clinic,6.72244,-1.59061,6.6546919,-1.6073715,OPERATIONAL,false
KMA Clinic,6.68488,-1.62353,6.685295699999999,-1.6227851,OPERATIONAL,true
KNUST Hospital,6.68409,-1.57378,6.6859234,-1.574171,OPERATIONAL,true
Komfo Anokye Teaching Hospital,6.69715,-1.63015,6.6975237,-1.6291939,OPERATIONAL,true
Kufour Clinic,6.69507,-1.62213,6.6950333,-1.6221971,OPERATIONAL,true
Kumasi Female Prisons Clinic,6.69393,-1.62343,6.6938957,-1.6233805,OPERATIONAL,true
Kumasi Medical Centre,6.70454,-1.62448,6.7046106,-1.6242907,OPERATIONAL,true
Kumasi Medical Centre ANNEX,6.73926,-1.63626,6.6666035,-1.6163247,OPERATIONAL,false
Kumasi South Government Hospital,6.65252,-1.58471,6.6512641,-1.5864405,OPERATIONAL,true
Kwesamkof New Tafo Clinic,6.71623,-1.61588,6.716189099999999,-1.6159316,OPERATIONAL,true
Kyei Memorial Hospital,6.69529,-1.61002,6.6954118,-1.6100586,OPERATIONAL,true
Lake Road Clinic,6.66001,-1.59311,6.6600804,-1.5931619,OPERATIONAL,true
Levenuel Clinic,6.73766,-1.62888,6.7375121,-1.6289219,OPERATIONAL,true
Logs Logging and Lumber Clinic,6.67284,-1.60822,6.6733135,-1.6089133,OPERATIONAL,true
Maame Serwa Maternity Home,6.64408,-1.59206,6.643955099999999,-1.5921646,OPERATIONAL,true
Maggie's Maternity Home,6.75131,-1.61758,N/A,N/A,NO DATA,false
Majero Maternity Home and Clinic,6.71839,-1.65101,6.643955099999999,-1.5921646,OPERATIONAL,false
Mammie Maternity Home,6.74306,-1.59227,6.748515599999999,-1.5726612,OPERATIONAL,false
Manhyia Government Hospital,6.70396,-1.61191,6.7026425,-1.612321,OPERATIONAL,true
Manukure Clinic,6.68694,-1.57753,6.6868677,-1.5775912,OPERATIONAL,true
Maranatha Maternity Clinic,6.69616,-1.66151,6.696223199999999,-1.6613544,OPERATIONAL,true
Mary's Maternity Home,6.67783,-1.60169,6.748515599999999,-1.5726612,OPERATIONAL,false
Maternal and Child Health Hospital,6.69316,-1.62531,6.6984989,-1.6254562,OPERATIONAL,false
Matty Memorial Clinic,6.72467,-1.60115,6.724748099999999,-1.6010986,OPERATIONAL,true
Mavelil Homoe Mission,6.73165,-1.63384,6.7315985,-1.6340091,OPERATIONAL,true
Mbrom Hospital,6.70534,-1.62392,6.7054388,-1.6235367,OPERATIONAL,true
Medical Center - ANNEX,6.73242,-1.62981,6.700450000000001,-1.620633,OPERATIONAL,false
Mintah Afari Maternity Home,6.69429,-1.61605,N/A,N/A,NO DATA,false
Mintah Clinic,6.75026,-1.63139,6.7503176,-1.6313393,OPERATIONAL,true
Moshie Zongo Clinic,6.72752,-1.60452,6.724938099999999,-1.6057366,OPERATIONAL,true
Naka and St. Ama Hospital,6.72976,-1.58603,6.7297104,-1.5858635,OPERATIONAL,true
New Era Clinic,6.68902,-1.57398,6.6889433,-1.5739752,OPERATIONAL,true
New Era Millennium Hospital,6.64842,-1.59076,6.648514599999999,-1.5909617,OPERATIONAL,true
New Life Maternity  Home and Clinic,6.69232,-1.57003,6.641139000000001,-1.6288057,OPERATIONAL,false
New Life Maternity and Clinic,6.69702,-1.53315,6.6525824,-1.6340353,OPERATIONAL,false
New Tafo Clinic,6.71836,-1.61191,6.718636099999999,-1.6116709,OPERATIONAL,true
New Town Hospital,6.69967,-1.61925,6.6997253,-1.6193558,OPERATIONAL,true
Nkontwima Clinic,6.73251,-1.62602,6.732732,-1.6245614,OPERATIONAL,true
Nyame ye Maternity Home,6.70131,-1.60595,6.748515599999999,-1.5726612,OPERATIONAL,false
Oforikrom Clinic,6.68986,-1.59339,6.689913,-1.5935404,OPERATIONAL,true
Omega Sawmill Clinic,6.65812,-1.60441,6.6581993,-1.6042808,OPERATIONAL,true
Our Lady Maternity Home,6.64775,-1.59059,6.681038,-1.5832592,OPERATIONAL,false
Owusuwa Memorial Maternity Maternity,6.70437,-1.58533,6.704341899999999,-1.5840343,OPERATIONAL,true
Owusuaa Maternity Home,6.69977,-1.59931,6.681038,-1.5832592,OPERATIONAL,false
Paradise Maternity and Clinic,6.68739,-1.57368,6.755880599999999,-1.6453306,OPERATIONAL,false
Paul Sagoe Sawmill Clinic,6.66754,-1.60755,6.6676046,-1.6072087,OPERATIONAL,true
Peace and Love Hospital,6.69904,-1.54041,6.699197799999999,-1.5409311,OPERATIONAL,true
Peace Land Clinic,6.69002,-1.64039,6.689847299999999,-1.6403705,OPERATIONAL,true
Pima Clinic,6.74661,-1.59242,6.746882800000001,-1.5924289,OPERATIONAL,true
Poku Transport Hospital,6.67289,-1.60181,6.6732397,-1.6018142,OPERATIONAL,true
Police Clinic,6.69402,-1.62702,6.6940772,-1.6269271,OPERATIONAL,true
PPAG Clinic,6.71789,-1.63674,6.717857,-1.6365809,OPERATIONAL,true
PPAG Teen's Centre,6.68805,-1.59241,6.688041,-1.5924164,OPERATIONAL,true
Prince of Peace Clinic,6.69915,-1.60002,6.6992053,-1.5998833,OPERATIONAL,true
Quality Health Care Ltd.,6.69654,-1.55216,6.704424299999999,-1.6237155,OPERATIONAL,false
Queen of Peace Maternity Home,6.70981,-1.64148,N/A,N/A,NO DATA,false
Queen Victory Maternity Home,6.67908,-1.59208,6.687948,-1.5757554,OPERATIONAL,false
Queens Hospital,6.63657,-1.58818,6.63669,-1.588244,OPERATIONAL,true
Rabito Clinic,6.69298,-1.62267,6.658454499999999,-1.6194683,OPERATIONAL,false
Railway Clinic,6.69196,-1.61926,6.6920401,-1.6191254,OPERATIONAL,true
Rophi Hospital,6.73026,-1.61204,6.6950523,-1.611604,OPERATIONAL,false
Rophii Hospital,6.69504,-1.61193,6.6950523,-1.611604,OPERATIONAL,true
Rucky Memorial Maternity Clinic,6.70227,-1.58091,6.681038,-1.5832592,OPERATIONAL,false
Russia Clinic,6.72609,-1.60633,6.726088799999999,-1.6063666,OPERATIONAL,true
Safo Adu Hosptal,6.70301,-1.61371,6.7024035,-1.6152906,OPERATIONAL,true
Sedom Clinic,6.70286,-1.63373,6.7028839,-1.6338641,OPERATIONAL,true
Sepe Dote Clinic,6.71914,-1.57917,6.7189466,-1.5792996,OPERATIONAL,true
Sepe-Buokrom Community Clinic,6.72118,-1.59593,6.7207871,-1.5964174,OPERATIONAL,true
Shalom Maternity Home,6.75172,-1.60518,6.751713199999999,-1.5980641,OPERATIONAL,false
Siaw Larbi Hospital,6.74196,-1.61304,6.7421447,-1.6134729,OPERATIONAL,true
Siloam Hospital,6.70008,-1.66115,6.699912899999999,-1.6607625,OPERATIONAL,true
Sir Gibrine Memorial Clinic,6.70138,-1.60467,6.7013395,-1.6048118,OPERATIONAL,true
Sir Gibrinnes Clinic,6.70798,-1.57989,6.7082934,-1.5799618,OPERATIONAL,true
Sir Gilbrenes Memorial Health Centre,6.70798,-1.57989,6.7013395,-1.6048118,OPERATIONAL,false
SOS Home Clinic,6.71352,-1.63055,6.713419999999999,-1.6304381,OPERATIONAL,true
St. Annes Clinic,6.64886,-1.59209,6.6490101,-1.5923793,OPERATIONAL,true
St. Anthony Hospital,6.72642,-1.64531,6.7262889,-1.6520192,OPERATIONAL,false
St. Edward Clinic,6.68972,-1.61009,6.6898233,-1.6101333,OPERATIONAL,true
St. Helena Maternity Home,6.69352,-1.54722,6.6921318,-1.5983522,OPERATIONAL,false
St. John's Clinic,6.72912,-1.61643,6.7292478,-1.6163514,OPERATIONAL,true
St. Joseph Clinic,6.71571,-1.61472,6.777178399999999,-1.4936729,OPERATIONAL,false
St. Marku's Hospital,6.67022,-1.60013,6.670075499999999,-1.6006403,CLOSED_PERMANENTLY,true
St. Paul's Clinic,6.73484,-1.60967,6.7347445,-1.60972,OPERATIONAL,true
Stadium Clinic,6.63487,-1.60536,6.6864849,-1.6055113,OPERATIONAL,false
Suame Hospital,6.73402,-1.61316,6.6779619,-1.6440116,OPERATIONAL,false
Sunkwa Clinic,6.67802,-1.59245,6.6779934,-1.5925286,OPERATIONAL,true
Suntreso Government Hospital,6.70243,-1.64223,6.7024,-1.6422,OPERATIONAL,true
Tafo Government Hospital,6.72554,-1.61317,6.725339699999999,-1.6131324,OPERATIONAL,true
Tafo Nhyiaeso Homeopatic Clinic,6.71852,-1.61175,6.718636099999999,-1.6116709,OPERATIONAL,true
The Word Maternity Home,6.73629,-1.61189,N/A,N/A,NO DATA,false
Tinkwama Maternity Home,6.72516,-1.64419,6.7155988,-1.5047464,OPERATIONAL,false
Trust Care Specialist Hospital,6.69042,-1.63979,6.690534100000001,-1.639915,OPERATIONAL,true
Turkson Memorial Maternity Home,6.71613,-1.62977,N/A,N/A,NO DATA,false
Twumasi Memorial Hospital,6.67157,-1.60489,6.6717035,-1.6050881,OPERATIONAL,true
VAG Clinic,6.70121,-1.61249,6.7012629,-1.6125277,OPERATIONAL,true
Vibro Maternity Home and Clinic,6.69609,-1.53127,6.7387231,-1.5875603,OPERATIONAL,false
Victory Clinic and Maternity Home,6.68806,-1.57589,6.687948,-1.5757554,OPERATIONAL,true
Vincent Clinic,6.75315,-1.61293,6.753152999999999,-1.6127041,OPERATIONAL,true
Washie Hospital,6.65263,-1.61921,6.6523593,-1.6188145,OPERATIONAL,true
Washington Clinic,6.72868,-1.61237,6.728656699999999,-1.6126302,OPERATIONAL,true
Wesley Cathederal Clinic,6.69362,-1.62325,6.6918767,-1.6287204,OPERATIONAL,false
Wilben Dental Clinic,6.70013,-1.61951,6.699998099999999,-1.6193824,OPERATIONAL,true
Wisdom Hospital,6.70875,-1.61056,6.7088288,-1.6105617,OPERATIONAL,true
Yeji Medical Clinic,6.74085,-1.64022,6.7409862,-1.6400771,OPERATIONAL,true
Yentumi Boitey Memorial Clinic,6.68684,-1.58501,6.6869413,-1.5851486,OPERATIONAL,true
Zion Hill Clinic,6.72267,-1.63107,6.722631199999999,-1.6309453,OPERATIONAL,true
Zongo Hill Clinic,6.70043,-1.61371,6.700346799999999,-1.6134993,OPERATIONAL,true
Kumasi Nurses/Midwifery Training School,6.4148,-1.37507,6.6666035,-1.6163247,OPERATIONAL,false
Kwadaso Nurses Training College,6.4148,-1.37507,6.6977464,-1.6577763,OPERATIONAL,false
Kumasi Ear Nose & Throat,6.4148,-1.37507,6.694508099999999,-1.6579593,OPERATIONAL,false
Kumasi Anasthesia,6.415,-1.37548,6.6666004,-1.6162709,NO DATA,false
Premier Nursing School (General Nursing),6.415,-1.37548,6.7264212,-1.6043294,OPERATIONAL,false
Asawasi Boakye Dunkwa Hospital,6.415,-1.37548,6.707384999999999,-1.6023261,OPERATIONAL,false
Effah Hospital,6.415,-1.37548,5.612615799999999,-0.4047203,OPERATIONAL,false
Moshie Zongo Russia Clinic,6.415,-1.37548,6.724938099999999,-1.6057366,OPERATIONAL,false
Ashanti Town Clinic,6.415,-1.37548,6.690576,-1.6204538,OPERATIONAL,false
Asawasi Nyame Ye Maternity Home,6.415,-1.37548,N/A,N/A,NO DATA,false
Allen Hospital,6.415,-1.37548,6.6708028,-1.5887006,OPERATIONAL,false
Ghana Legion Clinic,6.415,-1.37548,6.690576,-1.6204538,OPERATIONAL,false
New Asawasi Clinic,6.415,-1.37548,6.7026492,-1.6044591,NO DATA,false
Bomso Clinic,6.415,-1.37548,6.6845532,-1.578748,OPERATIONAL,false
Muslim Homeopathic Clinic,6.415,-1.37548,6.6525824,-1.6340353,OPERATIONAL,false
Allen's Clinic,6.415,-1.37548,6.6708028,-1.5887006,OPERATIONAL,false
Ayigya Clinic,6.415,-1.37548,6.689773499999999,-1.5726539,OPERATIONAL,false
Born Again Homeopathic,6.415,-1.37548,6.7482656,-1.6484435,OPERATIONAL,false
Homeopathic Clinic,6.415,-1.37548,6.6525824,-1.6340353,OPERATIONAL,false
Maud Maternity Home,6.415,-1.37548,N/A,N/A,NO DATA,false
Amansie Enterprise Clinic,6.415,-1.37548,6.6958649,-1.6824105,OPERATIONAL,false
John Bitar Company Clinic,6.415,-1.37548,6.658454499999999,-1.6194683,OPERATIONAL,false
Bosomtwi Clinic,6.415,-1.37548,6.6845532,-1.578748,OPERATIONAL,false
Atonsu-Agogo Clinic,6.415,-1.37548,6.7074589,-1.7176674,OPERATIONAL,false
Abrepo County Hospital,6.415,-1.37548,6.7265666,-1.6581483,OPERATIONAL,false
West End Clinic,6.415,-1.37548,6.676491,-1.651508,OPERATIONAL,false
SDA Hospital,6.415,-1.37548,6.6666035,-1.6163247,OPERATIONAL,false
Prempeh College Clinic,6.415,-1.37548,6.690472,-1.649353,OPERATIONAL,false
Patasi Suame Nkwanta Hospital,6.415,-1.37548,6.6779619,-1.6440116,OPERATIONAL,false
Asafo Agyei Hospital,6.415,-1.37548,6.6666035,-1.6163247,OPERATIONAL,false
Magazine Clinic,6.415,-1.37548,6.6931064,-1.6359353,OPERATIONAL,false
Togbe Clinic,6.415,-1.37548,6.7088787,-1.6376305,OPERATIONAL,false
Mary Pomaa Memorial Clinic,6.415,-1.37548,6.6872992,-1.6374404,OPERATIONAL,false
Robert Khock Health Services,6.415,-1.37548,6.7051152,-1.635393,OPERATIONAL,false
Adiebeba Hospital,6.415,-1.37548,6.6681525,-1.6178258,OPERATIONAL,false
Ahodwo Clinic,6.415,-1.37548,6.659894,-1.618063,OPERATIONAL,false
Ahodwo Washie Hospital,6.415,-1.37548,6.6523593,-1.6188145,OPERATIONAL,false
Philip Maternity Home,6.415,-1.37548,7.0591789,-1.3970055,OPERATIONAL,false
Hebrona Hospital,6.415,-1.37548,6.71107,-1.6341699,OPERATIONAL,false
Agyei Eli Hospital,6.415,-1.37548,6.641903999999999,-1.6191035,OPERATIONAL,false
Aurora Clinic,6.415,-1.37548,6.7546183,-1.5992717,OPERATIONAL,false
St. Anthony Homeopathic Clinic,6.415,-1.37548,6.7262889,-1.6520192,OPERATIONAL,false
St. Monica Maternity Hme,6.415,-1.37548,N/A,N/A,NO DATA,false
Amanfrom Clinic,6.415,-1.37548,6.757941300000001,-1.6869336,OPERATIONAL,false
Santasi Clinic,6.415,-1.37548,6.6712265,-1.6384499,OPERATIONAL,false
Boampong Hospital,6.415,-1.37548,6.6279887,-1.6478057,OPERATIONAL,false
Asadu Maternity Home,6.415,-1.37548,N/A,N/A,NO DATA,false
Living Waters Maternity Home,6.415,-1.37548,6.7221148,-1.4877992,OPERATIONAL,false
Yonkodo Maternity Home,6.415,-1.37548,N/A,N/A,NO DATA,false
UEWK Sick Bay,6.415,-1.37548,N/A,N/A,NO DATA,false
Restoration Clinic,6.415,-1.37548,6.658454499999999,-1.6194683,OPERATIONAL,false
Calvary Maternity Home,6.415,-1.37548,N/A,N/A,NO DATA,false
Divine Maternity Home,6.415,-1.37548,5.7950062,-0.1561476,OPERATIONAL,false
Kpodo Maternity Home,6.415,-1.37548,6.681038,-1.5832592,OPERATIONAL,false
Tiwaa Acupuncture,6.415,-1.37548,6.6892429,-1.6656804,OPERATIONAL,false
Tafo Nhyiaeso Bethel Clinic,6.415,-1.37548,6.718636099999999,-1.6116709,OPERATIONAL,false
St. John's Clinic,6.415,-1.37548,6.7292478,-1.6163514,OPERATIONAL,false
New Birth Maternity Home,6.415,-1.37548,6.7387231,-1.5875603,OPERATIONAL,false
Neuro-Psych Hospital,6.415,-1.37548,N/A,N/A,NO DATA,false
Prisons Clinic,6.415,-1.37548,6.6938957,-1.6233805,OPERATIONAL,false
Amakom Clinic,6.415,-1.37548,6.6945289,-1.6073725,OPERATIONAL,false
Methodist Cathederal Church Clinic,6.415,-1.37548,6.6938571,-1.62345,OPERATIONAL,false
Jesus Care Voluntary Clinic,7.5090674,-0.823448299999995,6.899716499999999,-1.2416574,OPERATIONAL,false
Asesewa CHPS,7.5090674,-0.823448299999995,6.3997304,-0.1424781,NO DATA,false
Dawia CHPS,7.5090674,-0.823448299999995,7.178281699999999,-0.8294001999999999,NO DATA,false
Funsua CHPS,7.5090674,-0.823448299999995,7.178281699999999,-0.8294001999999999,NO DATA,false
Hamidu CHPS,7.5090674,-0.823448299999995,7.178281699999999,-0.8294001999999999,NO DATA,false
Boni Clinic,6.44999999999999,-1.58333330000004,6.4592155,-1.57116,OPERATIONAL,false
Birem Health Centre,7.2169497,-2.18432849999999,7.012809,-1.3793033,OPERATIONAL,false
Calvary Health Service,7.03397,-1.24294,7.0607158,-1.4081636,OPERATIONAL,false
Yonso CHPS,7.03397,-1.24294,6.948527599999999,-1.424205,OPERATIONAL,false
Kwabre District Health Directorate,6.77884,-1.54569,6.6896017,-1.6263951,OPERATIONAL,false
Antoa Health Centre,6.75748,-1.52574,6.7549458,-1.5273847,OPERATIONAL,true
African Diaspora Clinic & Maternity Home,6.75053,-1.54224,6.750576000000001,-1.5421887,OPERATIONAL,true
Brofoyedru Health Centre,6.47265,-1.37389,6.7906406,-1.6274143,OPERATIONAL,false
PACKS Hospital,6.47265,-1.37389,N/A,N/A,NO DATA,false
Hilltop Hospital,6.47265,-1.37389,5.278515,-1.9949892,OPERATIONAL,false
Offinso District Health Directorate,6.56309,-1.40268,6.941884699999999,-1.6741267,OPERATIONAL,false
Anyinasuso SDA Clinc,7.0102,-1.42346,N/A,N/A,NO DATA,false
Abofour Health Centre,7.07473,-1.43587,7.1354022,-1.7319828,NO DATA,false
Amoawi Community Clinic,6.57199,-1.41169,6.956839,-1.6894332,NO DATA,false
Kwagyekrom CHPS,7.02111,-1.46379,7.0363375,-1.7773594,OPERATIONAL,false
Ayomso Rural Clinic,6.76364,-2.58248,6.763599999999999,-2.5825,OPERATIONAL,true
Fawohoyeden Clinic,6.7375,-2.57282,6.7374778,-2.572886,OPERATIONAL,true
Ayum Forest Clinic,6.90647,-2.56449,6.906537900000001,-2.5644071,OPERATIONAL,true
Agyei Mensah Maternity Home,6.80205,-2.51738,6.8020495,-2.5173561,OPERATIONAL,true
MIM Clinic,6.91361,-2.56503,6.913843300000001,-2.5633577,OPERATIONAL,true
District Assembly Maternity Home,6.9004,-2.5589,6.8079828,-2.516298,OPERATIONAL,false
Goaso Hospital,6.8057,-2.52181,6.8018757,-2.5147911,OPERATIONAL,false
Dankwa Maternity Home,6.94324,-2.80505,7.2743121,-2.8735344,OPERATIONAL,false
Church of Pentecost Clinic,6.94076,-2.81154,6.940799999999999,-2.8115,OPERATIONAL,true
Ampenkro Health Centre,6.94356,-2.76328,6.9436,-2.7633,OPERATIONAL,true
Asunafo North District Health Directorate,6.8057,-2.52181,6.827592699999999,-2.6983868,NO DATA,false
Asumura Rural Clinic,6.69184,-2.56169,6.6918,-2.5617,OPERATIONAL,true
Akrodie Health Centre,6.69505,-2.5569,6.6949719,-2.5569116,OPERATIONAL,true
Kukuom Health Centre,6.69659,-2.43872,6.6966929,-2.4385933,OPERATIONAL,true
Kwapong Rural Clinic,6.6227,-2.47506,6.6227,-2.4751,OPERATIONAL,true
Vic Maternity Home,6.6507,-2.42445,6.6968519,-2.4386335,OPERATIONAL,false
Sankore Health Centre,6.50285,-2.5017,6.502899999999999,-2.5017,OPERATIONAL,true
Kokooso  Rural Clinic,6.64344,-2.58633,6.6434,-2.5863,OPERATIONAL,true
Abuom Rural Clinic,6.61944,-2.70631,6.6194,-2.7063,OPERATIONAL,true
Asarekrom Rural Clinic,6.57574,-2.63918,6.5760533,-2.6387063,OPERATIONAL,true
Acherensua Health Centre,6.98211,-2.32174,6.9821,-2.3219,OPERATIONAL,true
Dadiesoaba Health Centre,6.77932,-2.41997,6.779300000000001,-2.42,OPERATIONAL,true
Sienkyemu Rural Clinic,6.70723,-2.39529,6.707199999999999,-2.3953,OPERATIONAL,true
Nyameadom Maternity  Home,6.83205,-2.362,5.551929599999999,-0.2643615,OPERATIONAL,false
Gambia No1 Rural Clinic,7.0378,-2.6357,7.0378,-2.6357,OPERATIONAL,true
Gyedu Health Center,7.06875,-2.3248,7.0688,-2.3248,OPERATIONAL,true
Nkasiem Community Clinic,6.86509,-2.44891,6.8651,-2.4489,OPERATIONAL,true
St.Elizabeth Hospital,6.93279,-2.35805,6.932527899999999,-2.3580684,OPERATIONAL,true
St. Elizabeth Maternity Home,6.99387,-2.53687,6.932527899999999,-2.3580684,OPERATIONAL,false
Esther Nyarko Maternity Home,6.98035,-2.38637,6.9804466,-2.386344,OPERATIONAL,true
Kenyasi Health Centre,6.97533,-2.3857,6.975527,-2.385904,OPERATIONAL,true
Asutifi District Health Directorate,6.97533,-2.3857,6.979050399999999,-2.3814301,OPERATIONAL,false
Akokoa Health Centre,7.58462,-1.15377,7.5846,-1.1538,OPERATIONAL,true
Amanteng Health Centre,7.53828,-1.20795,7.5383439,-1.2080278,OPERATIONAL,true
Jato Zongo Rural Clinic,7.65363,-1.06465,7.653599999999999,-1.0647,OPERATIONAL,true
Atebubu RCH/FP Clinic,7.74799,-0.98207,7.748119399999999,-0.9820981,OPERATIONAL,true
Atebubu Government Hospital,7.74807,-0.98197,7.7482087,-0.9821367,OPERATIONAL,true
Atebubu-Amanten District Health Directorate,7.74557,-0.98877,7.7451662,-0.9888323999999998,OPERATIONAL,true
Christie Maternity Home,7.46482,-2.57323,7.4606552,-2.5975207,OPERATIONAL,false
Aggie Maternity Home,7.45745,-2.58685,7.442995,-2.5822219,OPERATIONAL,false
Palm Avenue Maternity Home,7.44315,-2.58212,7.442995,-2.5822219,OPERATIONAL,true
Mpatasei Rural Clinic,7.457,-2.58338,7.457,-2.5834,OPERATIONAL,true
Philomina Maternity Home,7.45795,-2.60001,7.442995,-2.5822219,OPERATIONAL,false
Berekum Nurses/Midwifery Training College,7.44325,-2.58805,7.444853999999999,-2.5885586,OPERATIONAL,true
Angels maternity home,7.46191,-2.59254,7.4606552,-2.5975207,OPERATIONAL,false
Koraso Rural Clinic,7.48248,-2.02694,7.488493500000001,-2.6300931,NO DATA,false
Akrofro CHPS,7.49397,-2.58871,7.4911119,-2.5875104,OPERATIONAL,true
Emi Maternity Home,7.45051,-2.57339,7.4606552,-2.5975207,OPERATIONAL,false
Amomaso Rural Clinic,7.37385,-2.65996,7.3738869,-2.6599607,OPERATIONAL,true
Berekum Zongo RCH/FP Clinic,7.45371,-2.58284,7.453733499999999,-2.5829373,OPERATIONAL,true
ABTS Clinic,7.44034,-2.60347,7.440175,-2.6036734,OPERATIONAL,true
Bre Nye Kwa Hospital,7.44372,-2.59325,7.443699999999999,-2.5933,OPERATIONAL,true
Holy Family Hospital,7.44325,-2.58806,7.445210699999999,-2.5869953,OPERATIONAL,true
Botokrom Rural Clinic,7.5228,-2.72249,7.522799999999999,-2.7225,OPERATIONAL,true
Jinijini Health Centre,7.44656,-2.64642,7.4465328,-2.6464389,OPERATIONAL,true
Berekum District Health Directorate,7.44462,-2.57926,7.4444973,-2.5793237,OPERATIONAL,true
Amasu Rural Clinic,7.22802,-2.95807,7.227999999999999,-2.9581,OPERATIONAL,true
Kyeremasu Rural Clinic,7.26312,-2.76114,7.263040900000001,-2.7613383,OPERATIONAL,true
Kwameasua Presby Clinic,7.16715,-2.7701,7.167199999999999,-2.7700999,OPERATIONAL,true
Aboabo Presby Clinic,7.20647,-2.81057,7.206499999999999,-2.8106,OPERATIONAL,true
Asikasu Rural Clinic,7.1893,-2.89066,7.1892056,-2.8906718,OPERATIONAL,true
Danyami Rural Clinic,7.34172,-2.8792,7.341699999999999,-2.8792,OPERATIONAL,true
Dormaa Presby Hospital,7.27537,-2.86803,7.275210899999999,-2.8679267,OPERATIONAL,true
Dormaa PHC Project,7.27434,-2.86719,7.274291499999999,-2.8671847,OPERATIONAL,true
Ohenewaa Maternity Home,7.27435,-2.87338,7.2743121,-2.8735344,OPERATIONAL,true
Dormaa RCH/FP,7.27277,-2.87009,7.272631000000001,-2.8696193,OPERATIONAL,true
Dormaa Akwamu Health Centre,7.31711,-2.73729,7.317100000000001,-2.7373,OPERATIONAL,true
Akontanim Rural Clinic,7.30811,-2.71819,7.3081,-2.7182,OPERATIONAL,true
Kofibadukrom Port Health,7.28896,-2.97238,7.288999999999999,-2.9724,OPERATIONAL,true
Kojokumikrom Rural Clinic,7.29063,-2.91397,7.290595300000001,-2.9140006,OPERATIONAL,true
K/Dwomokrom Rural Clinic,7.29054,-2.90378,7.2905,-2.9038,OPERATIONAL,true
Dormaa District Health Directorate,7.27435,-2.87004,7.2710942,-2.8795822,OPERATIONAL,false
Kwaben Maternity Home,7.00092,-3.0862,7.2743121,-2.8735344,OPERATIONAL,false
Nkrankwanta Health Centre,7.01987,-3.0862,7.0189096,-3.0595271,OPERATIONAL,false
Ceci Maternity Home,7.01659,-3.04393,6.825304,-3.0201267,OPERATIONAL,false
Wamfie Health Centre,7.30582,-2.73729,7.305799999999999,-2.7373,OPERATIONAL,true
Bishop Mathew Gyamfi's Clinic,7.26224,-2.71568,7.262198399999999,-2.7157,OPERATIONAL,true
Racheal Maternity Home,7.26604,-2.71549,7.266838,-2.7150038,OPERATIONAL,true
Buni Community Clinic,7.80201,-2.6424,7.802,-2.6424,OPERATIONAL,true
Asiri Rural Clinic,7.80156,-2.70684,7.801649899999999,-2.7067803,OPERATIONAL,true
Asuokor Rural Clinic,7.73363,-2.61549,7.733600000000001,-2.6155,OPERATIONAL,true
Goka Health Centre,7.75868,-2.65616,7.9479047,-2.6958701,OPERATIONAL,false
Johnsons Rural Clinic,7.7653,-2.65532,7.765360899999998,-2.6554518,OPERATIONAL,true
Sampa District Hospital,7.95085,-2.695,7.9507607,-2.6950608,OPERATIONAL,true
Holy Daniel's Clinic,7.95075,-2.69753,7.950799999999998,-2.6974999,OPERATIONAL,true
Suma Presby Clinic,7.91843,-2.71607,7.9184,-2.7161,OPERATIONAL,true
Seketia Rural Clinic,7.8156,-2.74399,7.8156,-2.744,OPERATIONAL,true
Abirikasu Health Centre,7.49369,-2.82997,7.4937,-2.83,OPERATIONAL,true
Angel's Maternity Home,7.50335,-2.91504,7.5028755,-2.9150399,OPERATIONAL,true
St. Mary's Hospital,7.58599,-2.78549,7.586046000000001,-2.7853872,OPERATIONAL,true
Jejemirija Presby Clinic,7.63384,-2.72654,7.6338,-2.7265,OPERATIONAL,true
Elizabeth Maternity Home,7.68227,-2.78494,7.5028755,-2.9150399,OPERATIONAL,false
Drobo RCH/FP,7.5872,-2.78657,7.5873592,-2.7865221,OPERATIONAL,true
Dwenem Rural Clinic,7.68138,-2.78094,7.6814284,-2.7808975,OPERATIONAL,true
Baano Rural Clinic,7.60977,-2.90541,7.6098,-2.9054,OPERATIONAL,true
Vida's Maternity Home,7.63643,-2.90541,7.590645399999999,-1.946736,OPERATIONAL,false
Gonasua Health Centre,7.58836,-2.82208,7.5884,-2.8221,OPERATIONAL,true
Zezera Health Centre,7.73358,-2.86322,7.733421900000001,-2.8630571,OPERATIONAL,true
St. Micheal Maternity Home,7.74365,-2.80623,6.5588721,-1.512392,OPERATIONAL,false
Adiokor Rural Clinic,7.75029,-2.85133,7.593538100000001,-2.78759,OPERATIONAL,false
Adamsu Health Centre,7.7533,-2.80712,7.754036699999999,-2.8073117,OPERATIONAL,true
Bodaa Rural Clinic,7.78135,-2.82046,7.7814,-2.8205,OPERATIONAL,true
Saviour's Maternity Home,7.77289,-2.84769,7.773294,-2.847694,OPERATIONAL,true
Asare Rural Clinic,7.76307,-2.76607,7.763100000000001,-2.7660999,OPERATIONAL,true
Jeman North District Health Directorate,7.95037,-2.69579,7.951510600000001,-2.6950741,OPERATIONAL,true
Jaman South District Health Directorate,7.59374,-2.78768,7.645664999999999,-2.8178291,NO DATA,false
Busuama Rural Clinic,8.23236,-1.85531,8.2324,-1.8553,OPERATIONAL,true
Dawadawa Health Centre,8.35529,-1.56645,8.3553,-1.5665,OPERATIONAL,true
Kintampo District Hospital,8.05098,-1.7312,8.051,-1.7312,OPERATIONAL,true
Annor Asare Clinic,8.05586,-1.73341,8.0559,-1.7334,OPERATIONAL,true
RCH/FP Clinic,8.04999,-1.73102,8.049950599999999,-1.7310423,OPERATIONAL,true
Glory Prince of  Peace Maternity Home,8.0674,-1.72109,8.044995799999999,-1.7307256,OPERATIONAL,false
Kintampo Eye Clinic,8.05037,-1.7313,8.0502557,-1.7310306,OPERATIONAL,true
Kunsu Rural Clinic,8.14683,-1.51239,8.146799999999999,-1.5124,OPERATIONAL,true
Kintampo North District Health Dirrectorate,8.05054,-1.73235,8.050582,-1.732133,OPERATIONAL,true
New Longoro Health Centre,8.17255,-1.83829,8.1725999,-1.8383,OPERATIONAL,true
Amoma Rural Clinic,7.78398,-1.87129,7.784,-1.8713,OPERATIONAL,true
Anyima Rural Clinic,7.8932,-1.87403,7.893199999999999,-1.874,OPERATIONAL,true
Perpetual Health Maternity Home,7.99955,-1.54873,7.590645399999999,-1.946736,OPERATIONAL,false
Jema Health Centre,7.8905,-1.77307,7.890499999999999,-1.7731,OPERATIONAL,true
Kintampo South District Health Directorate,7.89152,-1.77313,7.891420800000001,-1.7719291,OPERATIONAL,true
Ahyiayem Rural Clinic,7.4672,-1.51826,7.4668987,-1.5180456,OPERATIONAL,true
Akuma Rural Clinic,7.48654,-1.71839,7.486499999999999,-1.7184,OPERATIONAL,true
Ayerede Rural Clinic,7.48594,-1.64877,7.4859046,-1.6487971,OPERATIONAL,true
Busunyaa Rural Clinic,7.68463,-1.65773,7.6846,-1.6577,OPERATIONAL,true
Donkro-Nkwanta Rural Clinic,7.43477,-1.65995,7.4348,-1.66,OPERATIONAL,true
Dromankese Health Centre,7.70912,-1.56124,7.709024400000001,-1.5613799,OPERATIONAL,true
Kranka Rural Clinic,7.66729,-1.81142,7.6671385,-1.8113572,OPERATIONAL,true
Nkoranza District Health Directorate,7.55632,-1.70002,7.695267699999999,-1.5983959,OPERATIONAL,false
St. Theresa's Hospital,7.57152,-1.70406,7.5705949,-1.7042448,OPERATIONAL,true
Nkoranza Health Centre,7.56816,-1.71117,7.568042299999999,-1.7113884,OPERATIONAL,true
Nkwabeng Rural Clinic,7.49959,-1.7381,7.4996,-1.7381,OPERATIONAL,true
Bonsu Rural Clinic,7.55219,-1.78035,7.552199999999999,-1.7804,OPERATIONAL,true
Yefri Health Centre,7.69133,-1.74787,7.568042299999999,-1.7113884,OPERATIONAL,false
Abease Health Centre,7.95847,-1.18246,7.958976,-1.1821036,OPERATIONAL,true
Parambo Health Centre,8.1252,-0.79412,N/A,N/A,NO DATA,false
Prang Health Centre,7.99465,-0.88928,7.994700000000001,-0.8893,OPERATIONAL,true
Bernice Maternity Home,8.22924,-0.65164,7.740684099999999,-2.1116853,OPERATIONAL,false
Mathias Hospital,8.22936,-0.6551,8.228195399999999,-0.6539488,OPERATIONAL,true
Bantama CHPS,7.71152,-0.75332,7.711062500000001,-0.7626406,OPERATIONAL,false
Bassa Health Centre,7.79016,-0.40995,7.790168199999999,-0.4101275,OPERATIONAL,true
Nyankontre CHPS,7.7925,-0.34233,7.792571400000001,-0.3448546,NO DATA,true
Kojokrom Health Centre,7.77873,-0.17077,7.7789363,-0.1706235,OPERATIONAL,true
Kajaji Clinic,7.78062,-0.22055,7.7834577,-0.216301,NO DATA,false
Sunta Clinic,7.73167,-0.67284,7.731521300000001,-0.6727814000000001,OPERATIONAL,true
Sene District Hospital,7.73115,-0.68588,7.7304697,-0.685599,OPERATIONAL,true
Sene District Health Directorate,7.73043,-0.68564,7.729423,-0.6864752,OPERATIONAL,true
Abesim Rural Clinic,7.2885,-2.27099,7.288513900000001,-2.2710089,OPERATIONAL,true
Christian Eye Centre,7.29219,-2.27146,7.292387100000001,-2.2712611,OPERATIONAL,true
Mercy Maternity Home,7.46061,-2.59739,7.3432097,-2.2981247,OPERATIONAL,false
Chiraa Health Centre,7.2412,-2.10578,7.403384900000001,-2.1816694,OPERATIONAL,false
Florence Maternity Home,7.29254,-2.9723,6.6690264,-3.0906818,OPERATIONAL,false
Sunyani District Health Directirate,7.33696,-2.32913,7.3727372,-2.3178998,OPERATIONAL,false
Brong Ahafo Regional Health Directorate,7.340233,-2.335633,7.3404574,-2.3356366,OPERATIONAL,true
Amponsah Memorial Maternity Home,7.40584,-2.46534,7.3432097,-2.2981247,OPERATIONAL,false
Nsoatre Health Centre,7.39914,-2.46312,7.3991,-2.4631,OPERATIONAL,true
Kwatire Health Centre,7.3853,-2.30018,7.3853,-2.3001999,OPERATIONAL,true
Bofourkrom Health Centre,7.54614,-2.27834,7.346492199999999,-2.2728029,OPERATIONAL,false
Louise Banks Griffin Clinic,7.38248,-2.33091,7.382481,-2.3308212,OPERATIONAL,true
Hannah Maternity Home,7.37068,-2.31991,7.343886099999999,-2.2650556,OPERATIONAL,false
Monica's Maternity Home,7.33862,-2.31295,7.3432097,-2.2981247,OPERATIONAL,false
Police Clinic,7.34635,-2.33026,7.3463951,-2.3302951,OPERATIONAL,true
Fiapre Rural Clinic,7.3629,-0.3467,7.356518899999999,-2.3541823,OPERATIONAL,false
Atuahenekrom Community Clinic,7.11161,-2.37727,7.111599999999999,-2.3773,OPERATIONAL,true
Ohene Adu Clinic,7.35717,-2.32426,7.357209399999999,-2.3242852,OPERATIONAL,true
Antwikrom Rural Clinic,7.22028,-2.39009,7.220300000000001,-2.3901,OPERATIONAL,true
Opoku Clinic,7.3439,-2.32856,7.3439,-2.3285999,OPERATIONAL,true
Peace Maternity Home,7.34097,-2.2999,6.825304,-3.0201267,OPERATIONAL,false
St. James Secondary Clinic,7.29371,-2.29166,7.293699999999999,-2.2917,OPERATIONAL,true
Rapid Preparatory School Clinic,7.32071,-2.32067,7.320534599999998,-2.3206675,OPERATIONAL,true
3MRS-Liberation Barracks,7.34184,-2.2946,7.3419297,-2.2945597,OPERATIONAL,true
Nkwabeng Hospital,7.34301,-2.32741,7.3428219,-2.327491,OPERATIONAL,true
Owusu Memorial Hospital,7.32669,-2.33267,7.326717400000001,-2.3325701,OPERATIONAL,true
Forestry School Cinic,7.34908,-2.34308,7.3490346,-2.3430485,OPERATIONAL,true
Ridge Experimental School Clinic,7.34016,-2.3385,7.340290999999999,-2.3386784,OPERATIONAL,true
Polytechnic Clinic,7.32315,-2.31733,7.3232797,-2.3172687,OPERATIONAL,true
Green Hill Clinic,7.31655,-2.30336,7.316430299999999,-2.303271,OPERATIONAL,true
Sunyani Regional Hospital,7.3446,-2.3142,7.3448536,-2.3141166,OPERATIONAL,true
Sunyani Municipal Hospital,7.33817,-2.32858,7.337522799999999,-2.3289953,OPERATIONAL,true
Prisons Clinic,7.34014,-2.33362,7.340274399999999,-2.3335237,OPERATIONAL,true
Sunyani Nurses Training College/Health Assistants Training School,7.33817,-2.32858,7.3442805,-2.3094058,OPERATIONAL,false
Badu Health Centre,7.70032,-2.23032,N/A,N/A,NO DATA,false
Banda Ahenkro Rural Clinic,8.1636,-2.3575,8.163602599999999,-2.3575039,OPERATIONAL,true
Bui Rural Clinic,8.25048,-2.26765,8.250499999999999,-2.2676802,OPERATIONAL,true
Sabiye Health Centre,8.07308,-2.35153,N/A,N/A,NO DATA,false
Mamase Rural Clinic,7.90103,-2.48373,7.901000000000001,-2.4836999,OPERATIONAL,true
Hani CHPS,7.8485,-2.47551,7.849258799999999,-2.4783438,NO DATA,true
Debibi Health Centre,7.8959,-2.53924,N/A,N/A,NO DATA,false
Tafsiru Maternity Home,7.92632,-2.38335,7.5028755,-2.9150399,OPERATIONAL,false
Menji Community Clinic,7.92558,-2.38,7.9228663,-2.3742744,OPERATIONAL,false
Nsawkaw Health Centre,7.87659,-2.31514,N/A,N/A,NO DATA,false
Brohani CHPS,7.97551,-2.4203,7.976761599999999,-2.4233417,NO DATA,true
Seikwa Health Centre,7.72836,-2.51792,7.7284142,-2.5179426,OPERATIONAL,true
Adrobaa Rural Clinic,7.2628,-2.13179,7.262799999999999,-2.1318,OPERATIONAL,true
Bomaa Health Centre,7.08675,-2.16797,7.086799999999999,-2.168,OPERATIONAL,true
St. John of God Hospital,7.17559,-2.0967,7.1762896,-2.0965561,OPERATIONAL,true
Tanoso Rural Clinic,7.2683,-2.236,7.268477400000001,-2.2358635,OPERATIONAL,true
Yamfo Health Centre,7.22567,-2.2411,7.225850599999999,-2.241398,OPERATIONAL,true
Trinity Maternity Home,7.04685,-2.10048,6.6715341,-1.6992699,OPERATIONAL,false
Bechem Government Hospital,7.08831,-2.02947,7.088210699999999,-2.0297721,OPERATIONAL,true
Derma Health Centre,7.20855,-1.94901,7.208600000000001,-1.949,OPERATIONAL,true
Tano South District Health Directorate,7.0696,-2.02233,7.2176693,-2.027319,NO DATA,false
Techimantia Health Centre,7.18142,-2.02874,7.1814,-2.0287,OPERATIONAL,true
Aworowa Health Centre,7.61979,-2.01215,7.617471500000001,-2.0169615,CLOSED_PERMANENTLY,false
Buoyem Health Centre,7.66606,-1.96107,7.666099999999998,-1.9611,OPERATIONAL,true
Forikrom Rural Clinic,7.59382,-1.86387,7.593800000000001,-1.8639,OPERATIONAL,true
Fiaso CHPS,7.57912,-1.81848,7.5908801,-1.9343555,OPERATIONAL,false
Asantaso Rural Clinic,7.54566,-1.8655,7.545700000000001,-1.8655,OPERATIONAL,true
Techiman Municipal Health Directorate,7.56243,-1.93487,7.5624159,-1.9348089,OPERATIONAL,true
Nsuta Health Centre,7.52836,-2.07377,7.496734399999999,-2.0996222,OPERATIONAL,false
Offuman Health Centre,7.78352,-1.96996,7.7941726,-1.9710284,OPERATIONAL,false
Tanoso Health Centre,7.47145,-1.97852,7.4635195,-1.9710284,OPERATIONAL,false
Techiman Subdistrict Clinic,7.58998,-1.94437,7.59,-1.9444,OPERATIONAL,true
Arm's Maternity Home,7.59118,-1.93813,7.5911271,-1.9381491,OPERATIONAL,true
Kristo Nti  Maternity Home,7.56965,-1.94848,7.590645399999999,-1.946736,OPERATIONAL,false
Techiman  Secondary School Clinic,7.56944,-1.93697,7.569538499999999,-1.9369541,OPERATIONAL,true
Alice Maternity Home,7.59064,-1.94684,7.590645399999999,-1.946736,OPERATIONAL,true
Nkwahia Maternity Home,7.57921,-1.93076,7.590645399999999,-1.946736,OPERATIONAL,false
Ahamadiya Moslem Hospital,7.58611,-1.9317,7.586163399999999,-1.9314533,OPERATIONAL,true
Opoku Agyeman Hospital,7.56288,-1.93692,7.562917199999999,-1.9371813,OPERATIONAL,true
Station Clinic,7.58451,-1.93631,7.584448200000001,-1.9362462,OPERATIONAL,true
Holy Family Hospital,7.59193,-1.93944,7.5918014,-1.9379746,OPERATIONAL,true
Tuobodom Health Centre,7.63484,-1.91209,7.6348,-1.9121,OPERATIONAL,true
Asuogya RCH/FP,7.70134,-2.10643,7.701372699999999,-2.1063645,OPERATIONAL,true
Wenchi District Health Directorate,7.74497,-2.00998,7.744771599999999,-2.0996869,OPERATIONAL,false
Subinso Health Centre,7.94251,-2.05399,7.9428135,-2.0534915,OPERATIONAL,true
Nchiraa Rural Clinic,7.89522,-1.98159,7.895200000000001,-1.9816,OPERATIONAL,true
RCH Clinic Wenchi,7.7444,-2.10038,7.739568500000001,-2.0949008,OPERATIONAL,false
Wencgi Methodist Hospital,7.73854,-2.111,7.738373200000001,-2.1118296,OPERATIONAL,true
Ampaabeng Kyeremeh Clinic,7.73557,-2.1087,7.735600000000001,-2.1086999,OPERATIONAL,true
Gov't. Maternity Home,7.74081,-2.11169,7.740684099999999,-2.1116853,OPERATIONAL,true
Nyaase Royal Maternity  Home,7.74042,-2.10208,7.716795299999998,-2.1075018,OPERATIONAL,false
Emil Memorial Hospital,7.73964,-2.09488,7.739568500000001,-2.0949008,OPERATIONAL,true
Tanoso Community Health Nurses Training School,7.2169497,-2.18432849999999,7.2675643,-2.2356594,OPERATIONAL,false
Biaso CHPS,6.9577082,-2.42087130000004,7.096243599999999,-2.715341,OPERATIONAL,false
Nankete CHPS,6.6148152,-2.49999179999997,6.618922899999999,-2.4789622,OPERATIONAL,false
Florence Maternity Home,7.277284,-2.876257,7.2743121,-2.8735344,OPERATIONAL,true
EMC Kwaku Any Maternity Home,7.277284,-2.876257,7.2710942,-2.8795822,OPERATIONAL,false
Adadiem Rural Clinic,7.9072974,-2.65864009999995,8.0254999,-2.5526,OPERATIONAL,false
Mayera Rural Clinic,7.9072974,-2.65864009999995,7.857699999999999,-2.6808,OPERATIONAL,false
Kokoa Rural Clinic,7.9072974,-2.65864009999995,7.850590999999999,-2.6483007,OPERATIONAL,false
Rabito Clinic,7.5666667,-1.70000000000004,7.492917599999999,-1.8322511,OPERATIONAL,false
Lassi CHPS,7.6111895,-0.45023679999997,7.3349414,-2.3123031,OPERATIONAL,false
Kwame Danso Hospital,7.6111895,-0.45023679999997,7.729947699999999,-0.6851063,OPERATIONAL,false
Techiman Poly. Clinic,7.5772222,-1.92916669999999,7.5799062,-1.9442674,OPERATIONAL,false
Market Clinic,7.5772222,-1.92916669999999,7.580799999999999,-1.9364,OPERATIONAL,false
Nkwaeso Clinic,7.5772222,-1.92916669999999,7.558899999999999,-1.9906,OPERATIONAL,false
Droboso Clinic,7.734117,-2.10357199999998,7.6988,-2.1077,OPERATIONAL,false
Christian Eye Centre,7.5977302,-1.93595930000003,7.292387100000001,-2.2712611,OPERATIONAL,false
Nkyekyemanu Rural Clinic,7.5977302,-1.93595930000003,7.478299999999999,-2.7897,OPERATIONAL,false
Kintampo Rural Health Training School,7.5977302,-1.93595930000003,8.0504035,-1.7276302,OPERATIONAL,false
Susec Clinic,7.3333333,-2.33333330000004,7.337599999999999,-2.3304999,OPERATIONAL,false
Notre Dame Sch. Clinic,7.3333333,-2.33333330000004,7.360434499999999,-2.3564279,OPERATIONAL,false
Ratchlik Clinic,7.3333333,-2.33333330000004,7.3448536,-2.3141166,OPERATIONAL,false
Atuahenekrom Clinic,7.3333333,-2.33333330000004,7.111599999999999,-2.3773,OPERATIONAL,false
Abesim Eye Clinic,7.3333333,-2.33333330000004,7.293552300000001,-2.300641600000001,OPERATIONAL,false
Fofie Memorial Clinic,7.3333333,-2.33333330000004,7.326717400000001,-2.3325701,OPERATIONAL,false
Holy Daniel Clinic,7.3333333,-2.33333330000004,N/A,N/A,NO DATA,false
SDA Hospital,7.3333333,-2.33333330000004,7.3452179,-2.3432731,OPERATIONAL,false
Anyekrom Health Centre,8.03966039999999,-2.38136209999993,7.946527,-1.023194,OPERATIONAL,false
Nyarko Maternity Home,8.03966039999999,-2.38136209999993,7.7196875,-2.5135625,OPERATIONAL,false
Zabrama Health Centre,8.0445086,-1.28910359999997,7.9914462,-1.3980247,OPERATIONAL,false
Adom Maternity Home,7.8685183,-1.75388169999996,8.067481599999999,-1.7222581,OPERATIONAL,false
Apesika Clinic,7.8685183,-1.75388169999996,7.9972832,-1.5474988,NO DATA,false
Mansie Clinic,7.8685183,-1.75388169999996,7.988023099999999,-1.9286527,OPERATIONAL,false
Brosankro Maternity Home,7.1315171,-2.02731900000003,7.0317091,-2.1033017,NO DATA,false
Psychiatric Clinic,7.68876849999999,-2.85771049999993,7.593538100000001,-2.78759,OPERATIONAL,false
Mercy Clinic,7.4041716,-2.44392530000004,7.4606552,-2.5975207,OPERATIONAL,false
Anyinasu CHPS,7.4041716,-2.44392530000004,N/A,N/A,NO DATA,false
Christian Eye Centre,7.75,-0.983333300000026,7.292387100000001,-2.2712611,OPERATIONAL,false
Bitre CHPS,6.827593,-2.698387,6.8079828,-2.516298,OPERATIONAL,false
Gyasikrom CHPS,6.827593,-2.698387,6.8117375,-2.7090781,OPERATIONAL,false
Ahmadiyya Muslim Hospital,6.827593,-2.698387,6.903,-2.5672,OPERATIONAL,false
WAM CHPS,6.827593,-2.698387,6.8079828,-2.516298,OPERATIONAL,false
Noberkaw CHPS,6.614815,-2.499992,6.651224099999999,-2.424577,NO DATA,false
1000 Acre CHPS,6.614815,-2.499992,N/A,N/A,NO DATA,false
New Saweresu CHPS,6.614815,-2.499992,5.696929,-2.1633701,OPERATIONAL,false
Goamu Koforidua CHPS,6.9577082,-2.42087130000004,7.053874899999999,-2.5021194,OPERATIONAL,false
ISOS Clinic,6.9577082,-2.42087130000004,6.983200000000001,-2.3853,OPERATIONAL,false
Blessed Family Maternity Home,6.9577082,-2.42087130000004,6.740390199999999,-1.6256041,OPERATIONAL,false
Nkaseim CHPS,6.9577082,-2.42087130000004,6.8637381,-2.4480536,NO DATA,false
Apenemadi CHPS,6.9577082,-2.42087130000004,6.1789003,-2.1192389,OPERATIONAL,false
MEM CHPS,7.75,-0.983333,7.754120899999999,-0.9844566999999999,NO DATA,true
Akomade Clinic,7.75,-0.983333,7.7498,-0.9880000000000001,OPERATIONAL,false
Adom Maternity Home,7.75,-0.983333,6.7161998,-0.8172336,OPERATIONAL,false
Garadima CHPS,7.75,-0.983333,7.708970300000001,-0.8092771,OPERATIONAL,false
Kumfia Clinic,7.75,-0.983333,7.7802,-1.2314,OPERATIONAL,false
Nyomoase CHPS,7.75,-0.983333,7.888287999999999,-0.9424623,OPERATIONAL,false
Namasua CHPS,7.45,-2.583333,7.512432199999999,-2.5479489,NO DATA,false
Tewbabi CHPS,7.45,-2.583333,5.5302875,-2.5674531,OPERATIONAL,false
RCH DHD,7.45,-2.583333,7.445210699999999,-2.5869953,OPERATIONAL,false
Clean Hands Maternity Home,7.45,-2.583333,N/A,N/A,NO DATA,false
Dr Larbi Clinic,7.45,-2.583333,7.453733499999999,-2.5829373,OPERATIONAL,true
Betco Clinic,7.45,-2.583333,7.453733499999999,-2.5829373,OPERATIONAL,true
Saviour Clinic,7.277284,-2.876257,7.275210899999999,-2.8679267,OPERATIONAL,false
Twumkrom CHPS,7.277284,-2.876257,7.2734861,-2.8608082,OPERATIONAL,false
Gonokrom CHPS,7.277284,-2.876257,7.2439992,-2.9566671,OPERATIONAL,false
New Chiraa PHC,7.277284,-2.876257,7.267062299999999,-2.8676879,OPERATIONAL,false
Kwakuanya Methodist Clinic,7.277284,-2.876257,6.9888,-2.9753,OPERATIONAL,false
Awiakrom Community Clinic,7.277284,-2.876257,7.267064700000001,-2.8677013,OPERATIONAL,false
Kofiboukrom CHPS,7.277284,-2.876257,7.2758534,-2.7149541,OPERATIONAL,false
Duadaso Rural Clinic,6.957708,-2.420871,7.9017,-2.6229,OPERATIONAL,false
Amanfoso CHPS,6.957708,-2.420871,7.9479047,-2.6958701,OPERATIONAL,false
Kokosua Rural Clinic,6.957708,-2.420871,7.860799999999999,-2.7562,OPERATIONAL,false
Atuna CHPS,6.957708,-2.420871,7.645664999999999,-2.8178291,NO DATA,false
Abuokrom CHPS,6.957708,-2.420871,7.645664999999999,-2.8178291,NO DATA,false
Tekese CHPS,6.957708,-2.420871,7.6938787,-2.7017163,NO DATA,false
Asempanaye CHPS,6.957708,-2.420871,7.7004263,-2.8658204,OPERATIONAL,false
Tanoso Community Health Nurses Training School,6.6148152,-2.49999179999997,7.2675643,-2.2356594,OPERATIONAL,false
Biaso Rural Clinic,6.9577082,-2.42087130000004,7.096243599999999,-2.715341,OPERATIONAL,false
Nankete CHPS,6.6148152,-2.49999179999997,6.618922899999999,-2.4789622,OPERATIONAL,false
Florence Maternity Home,7.277284,-2.876257,7.2743121,-2.8735344,OPERATIONAL,true
EMC Kwaku Any Maternity Home,7.277284,-2.876257,7.2710942,-2.8795822,OPERATIONAL,false
Adadiem Rural Clinic,7.9072974,-2.65864009999995,8.0254999,-2.5526,OPERATIONAL,false
Mayera Health Centre,7.9072974,-2.65864009999995,5.7206724,-0.2702068,OPERATIONAL,false
Kokoa Rural Clinic,7.9072974,-2.65864009999995,7.850590999999999,-2.6483007,OPERATIONAL,false
Suma Community Clinic,7.9072974,-2.65864009999995,7.9165,-2.7158,OPERATIONAL,false
Rabito Clinic,7.5666667,-1.70000000000004,7.492917599999999,-1.8322511,OPERATIONAL,false
Lassi CHPS,7.6111895,-0.45023679999997,7.3349414,-2.3123031,OPERATIONAL,false
Kwame Danso Hospital,7.6111895,-0.45023679999997,7.729947699999999,-0.6851063,OPERATIONAL,false
Techiman Poly. Clinic,7.5772222,-1.92916669999999,7.5799062,-1.9442674,OPERATIONAL,false
Market Clinic,7.5772222,-1.92916669999999,7.580799999999999,-1.9364,OPERATIONAL,false
Nkwaeso Clinic,7.5772222,-1.92916669999999,7.558899999999999,-1.9906,OPERATIONAL,false
Droboso Clinic,7.734117,-2.10357199999998,7.6988,-2.1077,OPERATIONAL,false
Christian Eye Centre,7.4041716,-2.44392530000004,7.292387100000001,-2.2712611,OPERATIONAL,false
Nkyekyemanu Rural Clinic,7.4041716,-2.44392530000004,7.478299999999999,-2.7897,OPERATIONAL,false
Kintampo Rural Health Training School,7.5977302,-1.93595930000003,8.0504035,-1.7276302,OPERATIONAL,false
Susec Clinic,7.3333333,-2.33333330000004,7.337599999999999,-2.3304999,OPERATIONAL,false
Notre Dame Sch. Clinic,7.3333333,-2.33333330000004,7.360434499999999,-2.3564279,OPERATIONAL,false
Ratchlik Clinic,7.3333333,-2.33333330000004,7.3448536,-2.3141166,OPERATIONAL,false
Scanstyle Clinic,6.91361,-2.56503,6.9138401,-2.5650997,OPERATIONAL,true
Atuahenekrom Clinic,7.3333333,-2.33333330000004,7.111599999999999,-2.3773,OPERATIONAL,false
Abesim Eye Clinic,7.3333333,-2.33333330000004,7.293552300000001,-2.300641600000001,OPERATIONAL,false
Fofie Memorial Clinic,7.3333333,-2.33333330000004,7.326717400000001,-2.3325701,OPERATIONAL,false
Holy Daniel Clinic,7.3333333,-2.33333330000004,N/A,N/A,NO DATA,false
SDA Hospital,7.3333333,-2.33333330000004,7.3452179,-2.3432731,OPERATIONAL,false
Anyekrom Health Centre,8.03966039999999,-2.38136209999993,7.946527,-1.023194,OPERATIONAL,false
Nyarko Maternity Home,8.03966039999999,-2.38136209999993,7.7196875,-2.5135625,OPERATIONAL,false
Zabrama Health Centre,8.0445086,-1.28910359999997,7.9914462,-1.3980247,OPERATIONAL,false
Adom Maternity Home,7.8685183,-1.75388169999996,8.067481599999999,-1.7222581,OPERATIONAL,false
Apesika Clinic,7.8685183,-1.75388169999996,7.9972832,-1.5474988,NO DATA,false
Mansie Clinic,7.8685183,-1.75388169999996,7.988023099999999,-1.9286527,OPERATIONAL,false
Brosankro Maternity Home,7.1315171,-2.02731900000003,7.0317091,-2.1033017,NO DATA,false
Psychiasdtric Unit,7.68876849999999,-2.85771049999993,N/A,N/A,NO DATA,false
Eye Clinic,7.68876849999999,-2.85771049999993,7.593538100000001,-2.78759,OPERATIONAL,false
Mercy Clinic,7.4041716,-2.44392530000004,7.4606552,-2.5975207,OPERATIONAL,false
Anyinasu Rural Health Clinic,7.4041716,-2.44392530000004,7.431299999999999,-2.5663,OPERATIONAL,false
Christian Eye Centre,7.75,-0.983333300000026,7.292387100000001,-2.2712611,OPERATIONAL,false
Abura Dunkwa RCH,5.34485,-1.17108,5.3282364,-1.1722528,OPERATIONAL,false
Baa Salvation Army Clinic,5.47564,-0.9336,5.475518399999999,-0.9336482999999999,OPERATIONAL,true
Ekukrom CHPS,5.4114,-1.05676,5.4031307,-1.0586153,OPERATIONAL,false
Nkodwo Nkojo CHPS,5.3557,-0.97178,N/A,N/A,NO DATA,false
Our Lady of Grace,5.58063,-0.99655,5.5806808,-0.9963075,OPERATIONAL,true
Odoben Health Centre,5.63314,-0.88531,5.633179600000001,-0.8853116,OPERATIONAL,true
Akoti Health Centre,5.77371,-1.24504,N/A,N/A,NO DATA,false
Cecilia & Sammy Maternity Home,5.694,-1.2738,5.962036299999999,-1.7771346,OPERATIONAL,false
Jakai Health Centre,5.40352,-1.20084,5.4035,-1.2008,OPERATIONAL,true
St. Jude Clinic,5.51756,-0.41646,5.5174987,-0.4163213,OPERATIONAL,true
Holy Family Maternity Home,5.52543,-0.42337,5.5251632,-0.4226433,OPERATIONAL,true
Connie's Maternity Home,5.53093,-0.42262,5.5683329,-0.4269952,OPERATIONAL,false
Justab Clinic,5.53349,-0.42904,5.5334206,-0.4293596,OPERATIONAL,true
Margo Maternity Home,5.52294,-0.48043,5.646353599999999,-0.4931381,OPERATIONAL,false
St. Joe's Clinic,5.5621,-0.44023,5.5619733,-0.4401927,OPERATIONAL,true
Mercy Wriketts Memorial Clinic,5.11197,-1.24952,5.1120981,-1.2495411,OPERATIONAL,true
Christian Eye Centre,5.1165,-1.27067,5.1162474,-1.2702768,OPERATIONAL,true
Stovie Medical Centre,5.11523,-1.27483,5.1150863,-1.2748234,OPERATIONAL,true
Mrboh Clinic,5.11022,-1.24777,5.1100989,-1.2478898,OPERATIONAL,true
Dominase Health Centre,5.35117,-1.09433,5.3512,-1.0943,OPERATIONAL,true
Anomabo Health Centre,5.17713,-1.12847,5.1762902,-1.1324896,OPERATIONAL,true
Biriwa Community Clinic,5.16601,-1.14999,5.1680434,-1.1469614,OPERATIONAL,true
Essuehyia Health Centre,5.3059,-0.88998,6.326269600000001,-0.3274755,OPERATIONAL,false
Nanabeng CHPS,5.24604,-0.94823,N/A,N/A,NO DATA,false
Otuam Health Centre,5.21913,-0.81071,5.8661778,-0.6566911,OPERATIONAL,false
St. Jude Blessing Clinic,5.16601,-1.19926,5.1657486,-1.1993193,OPERATIONAL,true
Fynba Clinic/Hospital,5.2624,-1.02119,5.2612368,-1.0208759,OPERATIONAL,true
Earthly Peace Clinic,5.27177,-1.01674,5.2716409,-1.0167777,OPERATIONAL,true
Prince Charles Clinic,5.27436,-1.01561,5.2743837,-1.0155601,OPERATIONAL,true
St. Anthony Maternity Home,5.26938,-1.01679,6.6397793,-1.4979578,OPERATIONAL,false
Saltpond Government Hospital,5.2045,-1.05614,5.204610800000001,-1.0562795,OPERATIONAL,true
Mankessim RCH/FP,5.27302,-1.03214,5.272835199999999,-1.0318954,OPERATIONAL,true
Mfantseman District Health Directorate,5.20422,-1.05516,5.2042094,-1.0551853,OPERATIONAL,true
Gods Gift Maternity Home,5.20422,-1.05516,N/A,N/A,NO DATA,false
Mercy Maternity & Fistula Women Centre,5.20422,-1.05516,5.2559358,-1.0152122,OPERATIONAL,false
Bethel Heamopatic CHPS,5.20422,-1.05516,N/A,N/A,NO DATA,false
Ebuakwa Community Clinic,5.20422,-1.05516,6.2977625,-1.8372344,OPERATIONAL,false
Immuna Clinic,5.20422,-1.05516,5.210166399999999,-0.8550766,OPERATIONAL,false
Kormantse Clinic,5.20422,-1.05516,5.1885,-1.1036999,OPERATIONAL,false
Srafa Kokodo Clinic,5.20422,-1.05516,N/A,N/A,NO DATA,false
Edumafa CHPS,5.20422,-1.05516,N/A,N/A,NO DATA,false
Ekrawfol CHPS,5.20422,-1.05516,N/A,N/A,NO DATA,false
Ekumpoano CHPS,5.20422,-1.05516,5.2070525,-0.9039994,OPERATIONAL,false
Eyisam CHPS,5.20422,-1.05516,N/A,N/A,NO DATA,false
Narkwa CHPS,5.20422,-1.05516,5.2047399,-1.1544963,NO DATA,false
Nsanfo CHPS,5.20422,-1.05516,5.222819599999999,-1.042486,OPERATIONAL,false
Taido CHPS,5.20422,-1.05516,N/A,N/A,NO DATA,false
Twifo Hemang Health Centre,5.49061,-1.53278,5.3713676,-1.4241426,NO DATA,false
Shed CHPS,5.42343,-1.5393,5.3713676,-1.4241426,NO DATA,false
Jukwa Health Centre,5.25963,-1.33296,5.259635299999999,-1.3329743,OPERATIONAL,true
Frami Community Clinic,5.30889,-1.3712,5.3713676,-1.4241426,NO DATA,false
Twifu-Hemang-Lower Denkyira District Health Directorate,5.6092,-1.54724,5.491292,-1.5329704,OPERATIONAL,false
Praso Hospital,5.61089,-1.54928,5.6106997,-1.5488606,OPERATIONAL,true
Wamaso CHPS,5.69832,-1.64432,5.3713676,-1.4241426,NO DATA,false
Mokwa Health Centre,5.70259,-1.60488,9.2917285,5.0581621,OPERATIONAL,false
St. Florence Maternity Home,5.67184,-1.54191,5.606000799999999,-1.5499461,OPERATIONAL,false
Twifo Praso Health Assistants Training School,5.67184,-1.54191,5.610609999999999,-1.5398999,OPERATIONAL,false
Topp Clinic,5.54685,-1.54687,5.3713676,-1.4241426,NO DATA,false
Pentecost Community Clinic,5.7457,-1.60402,5.6752253,-2.7505664,OPERATIONAL,false
Adade Kofi CHPS,5.7457,-1.60402,5.3713676,-1.4241426,NO DATA,false
Kayeriku CHPS,5.7457,-1.60402,5.3713676,-1.4241426,NO DATA,false
Kotokye CHPS,5.7457,-1.60402,5.3713676,-1.4241426,NO DATA,false
Nuamakrom CHPS,5.7457,-1.60402,5.3713676,-1.4241426,NO DATA,false
Dunkwa Hospital,5.96243,-1.77927,5.9635508,-1.7762202,OPERATIONAL,true
St. Mark Hospital,5.96779,-1.79029,5.968073899999999,-1.7909787,OPERATIONAL,true
Cecilia Maternity Clinic,5.96162,-1.78057,5.962036299999999,-1.7771346,OPERATIONAL,true
Upper Denkyira East District Health Directorate,5.9649,-1.779,5.874922499999999,-1.7344155,NO DATA,false
Kyekyewere Health Centre,5.91653,-1.67979,5.9165,-1.6798,OPERATIONAL,true
Oponso Health Centre,5.76519,-1.79897,5.7648761,-1.7987909,OPERATIONAL,true
Dunkwa Health Assistants Training School,5.76519,-1.79897,5.9653125,-1.7773125,OPERATIONAL,false
Buabin CHPS,5.88297,-1.75841,5.8762984,-1.7579384,NO DATA,false
Imbraim CHPS,5.81374,-1.77019,N/A,N/A,NO DATA,false
Dunkwa RCH,5.81374,-1.77019,5.965042899999999,-1.7803346,OPERATIONAL,false
Sunkwa Clinic,5.81374,-1.77019,6.4259951,-2.7122745,OPERATIONAL,false
Zion Clinic,5.81374,-1.77019,5.5697725,-0.3140979,OPERATIONAL,false
Agyempomah CHPS,5.81374,-1.77019,5.874922499999999,-1.7344155,NO DATA,false
Asikumah CHPS,5.81374,-1.77019,5.7408435,-2.1180315,OPERATIONAL,false
Asmah Camp CHPS,5.81374,-1.77019,6.301585600000001,-0.2047177,OPERATIONAL,false
Ntom CHPS,6.20034,-2.11999,N/A,N/A,NO DATA,false
S.D.A. Clinic,6.04646,-1.96497,6.045861899999999,-1.9643904,OPERATIONAL,true
Pentecost Health Centre,5.95786,-1.89896,5.6037379,-0.1869579,OPERATIONAL,false
St. John Clinic,6.00194,-1.92338,7.1762896,-2.0965561,OPERATIONAL,false
Diaso Health Centre,6.1527,-2.15153,6.1,-2.05,OPERATIONAL,false
Subin Health Centre,6.20041,-1.04273,6.200491599999999,-2.0425987,OPERATIONAL,false
Nkwatanan CHPS,6.20041,-1.04273,N/A,N/A,NO DATA,false
St. Andrews Anglican Clinic,6.05035,-1.95838,6.050260199999999,-1.958552,OPERATIONAL,true
Amoaman CHPS,6.05035,-1.95838,6.2726625,-2.0673594,OPERATIONAL,false
Anhwiawia CHPS,6.05035,-1.95838,6.0527875,-2.0025469,OPERATIONAL,false
Denkyira Obuasi CHPS,6.05035,-1.95838,6.1039967,-2.0481954,OPERATIONAL,false
Treposo CHPS,6.05035,-1.95838,6.079312499999999,-2.0204844,OPERATIONAL,false
Abakrampa Health Centre,5.24361,-1.23408,5.2539805,-1.2377421,OPERATIONAL,false
Nkwantanan CHPS,5.28076,-1.28954,5.2882034,-1.1929114,NO DATA,false
Abura-Asebu-Kwamankese District Health Directorate,5.3281,-1.1717,5.2882034,-1.1929114,NO DATA,false
Obohen CHPS,5.30269,-1.13868,5.2882034,-1.1929114,NO DATA,false
Kwamankese CHPS,5.29021,-1.09563,5.2882034,-1.1929114,NO DATA,false
Abura Dunkwa Hospital,5.34485,-1.17108,5.3454223,-1.1707467,OPERATIONAL,true
Gyabankrom CHPS,5.2788,-1.11699,5.282473,-1.1174458,OPERATIONAL,true
Ayeldu CHPS,5.33784,-1.12736,5.3282364,-1.1722528,OPERATIONAL,false
Asomdwee CHPS,5.33715,-1.28221,5.3282364,-1.1722528,OPERATIONAL,false
Asuansi Rural Clinic,5.30528,-1.25554,5.3053,-1.2555,OPERATIONAL,true
Asomdwee Clinic,5.33715,-1.28221,N/A,N/A,NO DATA,false
Moree Health Centre,5.13668,-1.19932,5.136550199999999,-1.1993509,OPERATIONAL,true
Putubiw CHPS,5.20157,-1.26566,5.2124631,-1.2097291,NO DATA,false
Amosima CHPS,5.20157,-1.26566,5.2882034,-1.1929114,NO DATA,false
Asebu CHPS,5.20157,-1.26566,5.2124631,-1.2097291,NO DATA,false
Asuansi CHPS,5.20157,-1.26566,5.298515,-1.262453,OPERATIONAL,false
Nyanfeku CHPS,5.20157,-1.26566,5.2882034,-1.1929114,NO DATA,false
Asafo Health Centre,5.5525,-0.66225,5.552499999999999,-0.6623,OPERATIONAL,true
Kwanyako Health Centre,5.59022,-0.6374,5.590199999999999,-0.6374,OPERATIONAL,true
Salvation Army Clinic,5.63113,-0.72601,5.6315852,-0.7275391,OPERATIONAL,true
Mankrong Health Centre,5.67169,-0.62054,5.6717,-0.6204999999999999,OPERATIONAL,true
Agona Nsaba Health Centre,5.65241,-0.75572,5.6524,-0.7556999999999999,OPERATIONAL,true
El-Shaddai Maternity Home,5.65241,-0.75572,5.5978838,-0.2554297,OPERATIONAL,false
Jonof Maternity Home,5.65241,-0.75572,N/A,N/A,NO DATA,false
Agona District Health Directorate,5.65241,-0.75572,5.6471423,-0.7539874999999999,OPERATIONAL,false
Mensakrom Clinic,5.65241,-0.75572,5.6040527,-0.7239112,OPERATIONAL,false
Kenyako CHPS,5.65241,-0.75572,N/A,N/A,NO DATA,false
Ofoase CHPS,5.65241,-0.75572,6.166127599999999,-1.1411261,OPERATIONAL,false
Otwekwa CHPS,5.65241,-0.75572,5.6033998,-0.6393702,NO DATA,false
Tawora CHPS,5.65241,-0.75572,5.5921375,-0.6654219,OPERATIONAL,false
Nkum Health Centre,5.6306,-0.83284,5.630599999999999,-0.8328,OPERATIONAL,true
Bobikuma Health Centre,5.55017,-0.85691,5.550243399999999,-0.8573991999999999,OPERATIONAL,true
Nyakrom Health Centre,5.60867,-0.79676,5.608682099999999,-0.7968980999999999,OPERATIONAL,true
Agona Swedru Govermnt Hospital,5.53532,-0.6926,5.534887800000001,-0.6927053,OPERATIONAL,true
Baiden Memoral Clinic,5.52597,-0.70704,5.5260019,-0.7071535,OPERATIONAL,true
Abodom Health Centre,5.53296,-0.82329,5.5330396,-0.8228434,OPERATIONAL,true
Ahmadiyya Muslim Hospital.,5.53852,-0.69956,5.5417514,-0.7010592999999999,OPERATIONAL,true
Glaco Maternity Home,5.53114,-0.69791,N/A,N/A,NO DATA,false
Agona Municipal Health Directorate,5.52313,-0.70139,5.523242499999999,-0.7014467,OPERATIONAL,true
Abigyakwa CHPS,5.52313,-0.70139,N/A,N/A,NO DATA,false
Dergewa Maternity Home,5.52313,-0.70139,5.5297741,-0.7054357,OPERATIONAL,false
Swedru RCH,5.52313,-0.70139,5.5202935,-0.6998594,OPERATIONAL,true
Swedru STI Clinic,5.52313,-0.70139,5.5202935,-0.6998594,OPERATIONAL,true
Nsuasa CHPS,5.52313,-0.70139,N/A,N/A,NO DATA,false
Nyamendam CHPS,5.52313,-0.70139,5.575225199999999,-0.6963503999999999,OPERATIONAL,false
Otsenkorang CHPS,5.71952,-0.82965,N/A,N/A,NO DATA,false
Ajumako Hospital,5.4237,-0.95484,5.4236037,-0.9548964999999999,OPERATIONAL,true
Ann's Maternity Home,5.48024,-0.93238,6.2968394,-1.523047,OPERATIONAL,false
Ajumako-Enyan-Essiam District Health Directorate,5.42363,-0.95545,5.4236037,-0.9548964999999999,OPERATIONAL,true
Bisease Health Centre,5.46482,-0.98895,5.464799999999999,-0.9890000000000001,OPERATIONAL,true
Enyan Abaasa Health Centre,5.35401,-0.95244,5.3539999,-0.9523999,OPERATIONAL,true
Kwanyako Community Clinic,5.45035,-0.87345,5.4503908,-0.8734921,OPERATIONAL,true
Sunkwa Community Clinic,5.35854,-1.05088,5.358499999999999,-1.0509,OPERATIONAL,true
Zion Clinic,5.39407,-0.98212,5.3938375,-0.9820991000000001,OPERATIONAL,true
Enyan-Maim Community Clinic,5.31384,-1.01756,5.3138364,-1.0176008,OPERATIONAL,true
Nkwantanum Health Centre,5.41199,-0.97646,5.4405237,-1.051339,OPERATIONAL,false
Abaasa Health Centre,5.41199,-0.97646,5.3539999,-0.9523999,OPERATIONAL,false
Ajumako RCH,5.41199,-0.97646,5.4639495,-0.9366844999999999,NO DATA,false
Ahomakormbua CHPS,5.41199,-0.97646,5.4349963,-1.0203224,NO DATA,false
Ayinasu CHPS,5.41199,-0.97646,5.4349963,-1.0203224,NO DATA,false
Ekwamase CHPS,5.41199,-0.97646,5.4349963,-1.0203224,NO DATA,false
Kromaim CHPS,5.41199,-0.97646,5.4349963,-1.0203224,NO DATA,false
Mando CHPS,5.41199,-0.97646,5.3895424,-0.9290818,NO DATA,false
Obontsir CHPS,5.41199,-0.97646,5.4349963,-1.0203224,NO DATA,false
Yeboah CHPS,5.41199,-0.97646,5.4349963,-1.0203224,NO DATA,false
Anhwiam CHPS,5.64501,-1.14176,5.644971099999999,-0.9820667999999999,NO DATA,false
Asikuma RCH,5.5903,-0.99457,5.590326399999999,-0.9944935,OPERATIONAL,true
Bedum CHPS,5.52583,-1.00691,5.5257893,-1.0062764,NO DATA,true
Asikuma-Odoben-Brakwa District Health Directorate,5.57791,-1.00412,5.5778951,-1.0041157,OPERATIONAL,true
Brakwa Health Centre,5.69912,-0.98457,5.6996666,-0.9860291,OPERATIONAL,true
Amanfopong CHPS,5.73664,-1.0124,5.7353687,-1.0110306,OPERATIONAL,true
Ocran Maternity Home,5.73664,-1.0124,6.7161998,-0.8172336,OPERATIONAL,false
Ayipey CHPS,5.73664,-1.0124,5.644971099999999,-0.9820667999999999,NO DATA,false
Jamra CHPS,5.73664,-1.0124,5.6460422,-1.0089228,OPERATIONAL,false
Nankese CHPS,5.73664,-1.0124,5.7023059,-0.8876911,OPERATIONAL,false
Sowotuom CHPS,5.73664,-1.0124,6.006938799999999,-0.5168391,OPERATIONAL,false
Bereku Health Centre,5.86629,-1.33988,5.8663,-1.3399,OPERATIONAL,true
Kushea Health Centre,5.87468,-1.44857,5.873087300000001,-1.4507187,NO DATA,true
Rex Maternity Home,5.92693,-1.35901,35.817301,-78.7032203,OPERATIONAL,false
Ebenezer Clinic & Matenity Home .,5.69698,-1.27703,6.7111962,-1.6405292,OPERATIONAL,false
St. Francis Xavier Hospital,5.6996,-1.28136,5.698347099999999,-1.2812049,OPERATIONAL,true
Bediadua Health Centre,5.77557,-1.49475,5.7756,-1.4947999,OPERATIONAL,true
Assin North District Health Directorate,5.69988,-1.27863,5.8547383,-1.4048249,NO DATA,false
Assin Praso Health Centre,5.92382,-1.35979,5.9283768,-1.3617433,OPERATIONAL,false
Akropong Odumase CHPS,5.92382,-1.35979,5.958234099999999,-0.09999699999999999,OPERATIONAL,false
Awisem CHPS,5.92382,-1.35979,5.8547383,-1.4048249,NO DATA,false
Endwa CHPS,5.92382,-1.35979,5.8547383,-1.4048249,NO DATA,false
Assin Manso Health Centre,5.52409,-1.16766,5.5240011,-1.1675834,OPERATIONAL,true
Ongwa Health Centre,5.68002,-1.39811,5.6300233,-1.3982084,OPERATIONAL,false
Assin South District Health Directorate,5.46162,-1.23531,5.4693479,-1.1570173,OPERATIONAL,false
Nyankumasi Ahenkro Health Centre,5.38334,-1.14932,6.8716896,-1.6413547,OPERATIONAL,false
Nsuta Presby Clinic,5.62802,-1.23251,5.630991799999999,-1.2358561,OPERATIONAL,true
Anyinabrim Health Centre,5.60888,-1.23531,6.369034699999999,-2.551338,OPERATIONAL,false
Aboabo CHPS,5.60888,-1.23531,6.0891611,-0.9370333000000001,OPERATIONAL,false
Amoabeng CHPS,5.60888,-1.23531,N/A,N/A,NO DATA,false
Ochiso CHPS,5.60888,-1.23531,5.4028477,-0.9791569999999998,OPERATIONAL,false
Fausty's Maternity Home,5.67413,-0.55933,5.5195405,-0.4879916,OPERATIONAL,false
Bontrase Health Centre,5.60814,-0.55929,5.608006899999999,-0.559334,OPERATIONAL,true
Awutu Health Centre,5.51293,-0.51456,5.5128417,-0.5146354,OPERATIONAL,true
Humble Home Clinic,5.51331,-0.5118,5.513267,-0.5118001999999999,OPERATIONAL,true
Bawjiase Health Centre,5.68429,-0.55172,5.685053099999999,-0.5525346,OPERATIONAL,true
Kasoa Health Centre,5.53382,-0.42641,5.5406675,-0.4282524,OPERATIONAL,false
Central Kasoa Clinic,5.54114,-0.42817,5.5406675,-0.4282524,OPERATIONAL,true
Senya Bereku Health Centre,5.39045,-0.49727,5.5128417,-0.5146354,OPERATIONAL,false
Chirsty's Maternity Home,5.30355,-0.31051,5.5683329,-0.4269952,OPERATIONAL,false
Marfred Maternity Home,5.30355,-0.31051,5.646353599999999,-0.4931381,OPERATIONAL,false
Mighty Crag Marternity Home,5.30355,-0.31051,N/A,N/A,NO DATA,false
Wesely Maternity Home,5.32045,-0.2626,5.5234489,-0.4568265,OPERATIONAL,false
Thinking Clinic,5.30437,-0.30544,N/A,N/A,NO DATA,false
Adawukwa CHPS,5.30437,-0.30544,5.5161859,-0.5144491,OPERATIONAL,false
Ahentia CHPS,5.33206,-0.31457,5.5161859,-0.5144491,OPERATIONAL,false
Akrabon CHPS,5.61691,-0.56952,5.5161859,-0.5144491,OPERATIONAL,false
Mayenda CHPS,5.61691,-0.56952,5.6985345,-0.6068586,OPERATIONAL,false
Ofaakor CHPS,5.61691,-0.56952,5.5881702,-0.4521384000000001,OPERATIONAL,false
Ofadaa CHPS,5.61691,-0.56952,5.727663799999999,-0.5464534000000001,OPERATIONAL,false
Okwampa CHPS,5.61691,-0.56952,5.7186413,-0.5783758,OPERATIONAL,false
Opeikuma CHPS,5.61691,-0.56952,5.558198099999999,-0.4759414999999999,OPERATIONAL,false
Papaase CHPS,5.61691,-0.56952,5.6223332,-0.4707924000000001,OPERATIONAL,false
Tawiakwa CHPS,5.61691,-0.56952,5.718590799999999,-0.6787236000000001,OPERATIONAL,false
PPAG Youth Friendly,5.13586,-1.27695,5.1357222,-1.2769428,OPERATIONAL,true
Police Clinic,5.12181,-1.27063,5.1217577,-1.27089,OPERATIONAL,true
Central Regional Hospital,5.1332,-1.26603,5.1341272,-1.2662415,NO DATA,true
Baiden Ghartey Memorial Hospital,5.12535,-1.27525,5.1251739,-1.2752355,OPERATIONAL,true
St. John's Clinic/Maternity Home,5.18089,-1.28102,5.1307801,-1.2787373,OPERATIONAL,false
Anaisiwa Memorial Clinic,5.11036,-1.25054,5.110399999999999,-1.2505,OPERATIONAL,true
Bishop Ackon Memorial Christian Eye Centre,5.1165,-1.27067,5.116556,-1.2705695,OPERATIONAL,true
Abura Clinic,5.13131,-1.33529,5.1311922,-1.27272,OPERATIONAL,false
Adisadel Urban Health Centre,5.11936,-1.26784,5.1192212,-1.2678911,OPERATIONAL,true
U.C.C Hospital,5.10537,-1.28298,5.1050576,-1.282961,OPERATIONAL,true
Regional Health Directorate,5.10162,-1.2709,5.1017111,-1.2708618,OPERATIONAL,true
Cape Coast Metropolitan Hospital,5.10247,-1.25902,5.1020642,-1.25968,OPERATIONAL,true
Cape Coast Nurses & Midwife Training School,5.10248,-1.25688,5.1027306,-1.2567849,OPERATIONAL,true
Efutu Rural Clinic,5.21052,-1.32217,5.2105,-1.3222,OPERATIONAL,true
Ekon CHPS,5.12117,-1.2709,5.1220919,-1.2251563,OPERATIONAL,false
Tantri Clinic,5.1128,-1.24091,5.1314481,-1.271588,OPERATIONAL,false
The Saint Maternity Home,5.11088,-1.23425,5.1307801,-1.2787373,OPERATIONAL,false
Ewim Urban Health Centre,5.11533,-1.24487,5.114383999999999,-1.24408,OPERATIONAL,true
Cape Coast RCH,5.10833,-1.24717,5.108462299999999,-1.2473706,OPERATIONAL,true
Cape Coast Metropolitan Health Directorate,5.10833,-1.24714,5.1083921,-1.2470636,OPERATIONAL,true
Aged Clinic,5.0633,-1.15526,5.132651399999999,-1.2661865,OPERATIONAL,false
Micro Clinic,5.06807,-1.14468,5.1020642,-1.25968,OPERATIONAL,false
Brimsu CHPS,5.11075,-1.18226,5.1947706,-1.2921302,OPERATIONAL,false
Brofoyedu CHPS,5.06669,-1.14021,5.173168200000001,-1.2987349,NO DATA,false
Nkanfoa CHPS,5.08409,-1.14648,5.1436145,-1.2444263,OPERATIONAL,false
Winneba RCH,5.33849,-0.62412,5.3745562,-0.6413711,OPERATIONAL,false
Otoo Memorial Hospital,5.35441,-0.62205,5.354425399999999,-0.6320370000000001,OPERATIONAL,false
Baptist Hospital,5.35441,-0.62205,10.5197972,-0.3659337,OPERATIONAL,false
Klimovic Memorial Hospital,5.36621,-0.63719,5.3660275,-0.6373748,OPERATIONAL,true
Winneba Government Hospital,5.34374,-0.6229,5.3433302,-0.623065,OPERATIONAL,true
Bethel Maternity Home,5.34224,-0.62985,5.3425074,-0.6296676999999999,OPERATIONAL,true
Efutu District Health Directorate,5.33815,-0.62484,5.3962049,-0.5950339,OPERATIONAL,false
Winneba Community Health Nurses Training School,5.37109,-0.64254,5.371055,-0.6428134999999999,OPERATIONAL,true
Ansaful Health Centre,5.37109,-0.64254,5.3385999,-0.6266999999999999,OPERATIONAL,false
Winniba Health Centre,5.20189,-0.3727,5.338563199999999,-0.6240112000000001,OPERATIONAL,false
Winniba Municipal Health Directorate,5.20174,-0.37295,5.3962049,-0.5950339,OPERATIONAL,false
University Clinic,5.22095,-0.37478,5.3693249,-0.6299808,OPERATIONAL,false
Gyangyanadze CHPS,5.23474,-0.34361,N/A,N/A,NO DATA,false
Buduatta Health Centre,5.49698,-0.57723,5.4970001,-0.5771997999999999,OPERATIONAL,true
Nadom Maternity Home,5.46673,-0.41123,N/A,N/A,NO DATA,false
Nyanyano Clinic,5.47036,-0.41798,5.470134100000001,-0.4179399,OPERATIONAL,true
Obuasi Clinic,5.50399,-0.7547,6.205883099999999,-1.6703122,OPERATIONAL,false
Buduburam Clinic,5.523917,-0.475167,5.523058,-0.4782499,OPERATIONAL,true
Ojobi Community Clinic,5.48019,-0.53142,5.480439,-0.5314609,OPERATIONAL,true
Andrew Browning Clinic,5.43145,-0.47701,5.431500000000001,-0.477,OPERATIONAL,true
Fetteh CHPS,5.42147,-0.46725,5.421344899999999,-0.4677094999999999,OPERATIONAL,true
